state,city,lat,lng,intro
北海道,旭川市,43.77064,142.365,旭川市（日语：旭川市／あさひかわし Asahikawa shi ）是日本北海道上川綜合振興局境內的一個城市，是北海道僅次於札幌市的第二大城[2]，現為中核市，也是該振興局的行政中心所在地。近年來以旭山動物園和旭川拉麵聞名日本國內外，現與釧路市同被指定為北海道的國際會議觀光城市。
北海道,室蘭市,42.3153,140.9736,室蘭市（日语：室蘭市／むろらんし Muroran shi ）為北海道西南部（屬道南區域）沿海的城市，位於繪鞆半島，其東、西、南三面環太平洋，具有天然良港的環境。鋼鐵工業十分發達，甚至被認為是新日本製鐵和日本製鋼所兩家製鐵公司的企業城下町（企業城），同時還有造船、煉油等工業，是北海道具代表性的重工業都市。
北海道,帶廣市,42.9236,143.1967,帶廣市（日语：帯広市／おびひろし Obihiro shi ）是位於日本北海道東南部的城市，位於十勝平原（日语：十勝平野）中央，是十勝綜合振興局轄內的主要城市，也是十勝地區的農產集散地，並有大量食品加工相關的產業。過去曾經是北海道人口排名第五大城市，不過在自衛隊編制縮減及中央政府機構的縮編影響下，使得人口開始減少，在2004年3月之後，人口數被苫小牧市超越，現為北海道第六大城市，次於札幌市、旭川市、函館市、釧路市、苫小牧市。
北海道,北見市,43.8081,143.8942,北見市（日语：北見市／きたみし Kitami shi ）為位於日本北海道鄂霍次克綜合振興局的城市，面向鄂霍次克海，為鄂霍次克綜合振興局內最大的城市。1992年起，人口超越室蘭市，2006年進行合併後，也超越了江別市，成為北海道內的第八大城，同時是北海道面積最大的市町村級行政區，在全日本則是次於岐阜縣高山市、靜岡縣濱松市和栃木縣日光市，為全日本第四；面積相當於日本面積最小的縣－－香川縣的四分之三。從轄區最西端的石北峰到最東端的鄂霍次克海岸的道路長度大約為110公里，相當於從東京車站到箱根的距離，也是全日本最「長」的市町村行政區；為了有效管理廣大的轄區，北見市在各合併前的行政區中分別設置自治區，並各設置一名副市長兼任該自治區區長。[2][3]
北海道,夕張市,43.0569,141.9739,夕張市（日语：夕張市／ゆうばりし Yūbari shi ）為位于日本北海道中部空知綜合振興局的城市，近年以生產夕張蜜瓜（日语：夕張メロン）而聞名。
北海道,岩見澤市,43.1961,141.7758,岩見澤市（日语：岩見沢市／いわみざわし Iwamizawa shi ）為位於日本北海道空知綜合振興局南部的城市，位於石狩平原的東部，也是空知綜合振興局辦公室的所在地。轄區內的水稻耕作面積及收穫為北海道第一。
北海道,網走市,44.0206,144.2736,網走市（日语：網走市／あばしりし Abashiri shi ）位於日本北海道東部（道東），為鄂霍次克綜合振興局轄下城市，也是鄂霍次克綜合振興局辦公室所在地，在北見市以東約50公里。北邊面向鄂霍次克海，境內多丘陵，市中心位於網走川出海口附近，並延伸到周邊海岸附近的平地。轄區內西北部有能取湖，中部有網走湖、東部有濤沸湖，皆屬於網走國定公園。若按照字母排序的話，網走(Abashiri)是日本排序最前的市町村。
北海道,留萌市,43.9411,141.6369,留萌市（日语：留萌市／るもいし Rumoi shi ）是日本北海道留萌振興局的振興局所在地，位於留萌振興局南部，臨日本海，也是留萌振興局的中心城市，主要的產業包括商業、土木業和水產加工業。虽然辉煌不及往昔，但现在仍是鯡魚的主要捕獲港口，也是鯡魚卵的最大加工地。拥有日本少有的入超港——留萌港。
北海道,苫小牧市,42.63406,141.6055,苫小牧市（日语：苫小牧市／とまこまいし Tomakomai shi ）是北海道西南部的城市，距離札幌市僅九十分鐘的車程。與室蘭市都是北海道具代表性的工業都市、企業城市和港灣都市。自明治時期該市就開始發展造紙業，目前每年的報紙用紙產量約有100頓，佔全日本的30%，其中王子製紙苫小牧工場是全世界報紙產量最大的工廠，因此目前苫小牧有「紙的城市」之稱，造紙工廠的紅白煙囪更被稱為「王子的煙囪」，成為當地的象徵。
北海道,芦别市,43.5183,142.1894,蘆別市（日语：芦別市／あしべつし Ashibetsu shi ）是位于北海道空知綜合振興局東部的一個城市，位於夕張山地的北部，轄區的九成地區為山區和森林。
北海道,江別市,43.1039,141.5361,江別市（日语：江別市／えべつし Ebetsu shi ）是北海道石狩振興局東部的一個城市，位於札幌市東側，為札幌的住宅城市，因此過去人口曾經快速成長，但近年人口已轉為減少。現在是北海道人口第9多的城市。名稱源自阿伊努語的「e-petke」（兔唇）或「yupe-ot」（鱘魚很多）或是「i-put」（村子的入口）。
北海道,赤平市,43.5581,142.0442,赤平市（日语：赤平市／あかびらし Akabira shi ）是位于日本北海道中部的城市，屬空知綜合振興局，主要市區主要位於空知川（日语：空知川）流域，除空知川沿岸區域外接為山區。
北海道,紋別市,44.3564,143.3542,紋別市（日语：紋別市／もんべつし Monbetsu shi ）為位於日本北海道鄂霍次克綜合振興局北部的城市，北側面鄂霍次克海，冬季時岸邊會有流冰，南部為台地。名稱源自阿伊努語的「mo-pet」，意思為安靜的河。 
北海道,士別市,44.1786,142.4006,士別市（日语：士別市／しべつし Shibetsu shi ）為北海道上川綜合振興局的城市。位於名寄盆地的南部，天鹽川與劍淵川的會合處附近，東部為北見山地，西部為天鹽山地。境內東部的岩尾內湖為天鹽川的起源。
北海道,名寄市,44.3558,142.4633,名寄市（日语：名寄市／なよろし Nayoro shi ）是位於北海道上川綜合振興局北部名寄盆地中央的城市，天鹽川和名寄川在此合流。
北海道,三笠市,43.2458,141.8756,三笠市（日语：三笠市／みかさし Mikasa shi ）是位於日本北海道中部，空知綜合振興局的一個城市，特產包括三笠哈密瓜、三笠西瓜、三笠洋蔥和梅；轄區內的三笠市立博物館為全日本收藏菊石化石最多的博物館。過去曾經因為開採煤礦而繁榮，不過隨著煤礦產業的沒落，人口也開始減少，現已成為全日本人口第三少的城市，人口數僅多於歌志內市與夕張市。
北海道,瀧川市,43.5578,141.9106,瀧川市（日语：滝川市／たきかわし Takikawa shi ）是北海道空知綜合振興局轄下的一個城市。位於石狩平原的北部，石狩川和空知川匯流處。
北海道,砂川市,43.49483,141.9034,砂川市（日语：砂川市／すながわし Sunagawa shi ）是位於北海道空知綜合振興局轄下的一個城市；市民平均可利用公園面積是全日本最大的城市。
北海道,歌志內市,43.5214,142.0344,"歌志內市（日语：歌志内市／うたしないし Utashinai shi ）是位於北海道中部空知綜合振興局轄下的一個城市。過去曾經因煤礦的開採而繁榮，在1948年時，人口最多時曾經達到46,000人；但在煤礦產業衰退之後人口隨之開始減少，目前是全日本人口最少的城市，人口僅三千餘人，連北海道升格為町的5,000人門檻都不足。"
北海道,深川市,43.7233,142.0536,深川市（日语：深川市／ふかがわし Fukagawa shi ）是位於北海道空知綜合振興局北空知地區的主要城市，是空知北部的交通中心，有許多鐵路和公路在此交會。該市蕎麥的種植面積是全日本第二。[2]
北海道,富良野市,43.3419,142.3833,富良野市（日语：富良野市／ふらのし Furano shi ）是日本北海道上川綜合振興局轄區內南部的一個城市，是北海道內知名的觀光城市。曾經為日劇《來自北國》（北の国から）的故事地點。
北海道,登別市,42.4128,141.1067,登別市（日语：登別市／のぼりべつし Noboribetsu shi ）為日本北海道膽振綜合振興局的城市，屬於室蘭市的衛星城市，轄區內西南部的工業區屬於室蘭市週邊工業區。市內的登別溫泉和カルルス溫泉為著名的旅遊勝地。
北海道,惠庭市,42.88256,141.5777,惠庭市（日语：恵庭市／えにわし Eniwa shi ）是位于北海道石狩振興局南部的一個城市，由於鄰近札幌市，成為札幌市的住宅城市。由於日本自衛隊在惠庭市的西部山區和平原設有演習場，因此有許多自衛隊相關人員居住於此。
北海道,伊達市 (北海道),42.4719,140.8647,伊達市（日语：伊達市／だてし Date shi ）是日本北海道膽振綜合振興局西部的城市，臨內浦灣。成立於2006年1月1日的福島縣伊達市同樣名為伊達市，繼府中市後，成為日本第二組名稱重複的城市。
北海道,北廣島市,42.98569,141.5636,北廣島市（日语：北広島市／きたひろしまし Kitahiroshima shi ）位於北海道石狩振興局東南部。緊鄰札幌市東南側。原本是農村，隨著札幌的開發，成為札幌的通勤城鎮。
北海道,石狩市,43.1783,141.3067,石狩市（日语：石狩市／いしかりし Ishikari shi ）是位于北海道石狩振興局北部的一個城市。
北海道,北斗市,41.8242,140.6531,北斗市（日语：北斗市／ほくとし Hokuto shi ）是位于北海道渡島綜合振興局中部的城市，是北海道最早栽種水稻的地區，轄區東南部以平原為主，西部是山區地形，南側面對函館灣。於2006年2月1日由上磯郡上磯町和龜田郡大野町合併成立，是渡島支廳第二個誕生的城市，人口在廳內僅次於函館市。
青森县,弘前市,40.6031,140.4642,弘前市（日语：弘前市／ひろさきし Hirosaki shi ）位於日本青森縣的西部，現在是津輕地方的中心都市。過去曾是弘前藩的城下町，因此當時發展已較其他地方發達。目前已與周邊的自治體形成了有33萬人口的弘前都市圈，為青森縣的第三大城。
青森县,青森市,40.8222,140.7475,青森市（日语：青森市／あおもりし Aomori shi ），是日本本州岛北部青森县的縣廳所在地，現為中核市之一，临津轻海峡，是本州岛最北端縣廳所在地。
青森县,八戶市,40.5122,141.4883,八戶市（日语：八戸市／はちのへし Hachinohe shi ）是位於日本青森縣東南方，面臨太平洋的一個中核市，僅次於青森市的第二大城市。
青森县,黑石市,40.6428,140.5944,黑石市（日语：黒石市／くろいしし）為一位於日本青森縣及十和田八幡平國立公園西面入口的城市。
青森县,五所川原市,40.8081,140.44,五所川原市（日语：五所川原市／ごしょがわらし Goshogawara shi ）是一座位於青森縣的城市。
青森县,十和田市,40.6128,141.2058,十和田市（日语：十和田市／とわだし Towada shi ）是一座位於日本青森縣東南部內陸地區的城市。
青森县,三泽市,40.6833,141.3689,三澤市（日语：三沢市／みさわし Misawa shi ）為日本青森縣的一個城市。駐日美軍在此設有三澤空軍基地，在該市居住了約一萬名美軍與其眷屬。詩人寺山修司的故鄉位于本市。
青森县,陆奥市,41.2931,141.1831,"陸奧市（日语：むつ市／むつし Mutsu shi ）是一座位于青森縣下北半島的城市，面向陸奧灣及津輕海峽。在2005年經過市町村合併后成為青森縣內面積最大的市。約占去青森縣面積的11%。該市是日本最早的以平假名命名的城市，也是下北地方的中心城市，與周圍的自治體形成約75,000人口的陸奧都市圈。不過，現在人口有減少的傾向，主要原因為舊大畑町、舊川內町及舊脇野澤村的人口不斷外移，而舊陸奧市的人口亦出現流失狀態。"
青森县,津輕市,40.8089,140.38,津輕市（日语：つがる市／つがるし Tsugaru shi ）為日本青森內的一個城市。誕生於2005年（平成17年）2月11日，由木造町、森田村、柏村、稻垣村、車力村1町4村合併而成的新城市。為青森縣內除陸奧市外，另一以平假名命名的城市。
青森县,平川市,40.5842,140.5664,平川市（日语：平川市／ひらかわし Hirakawa shi ）是一個位於青森縣津輕地方的城市。成立於2006年（平成18年）1月1日，由南津輕郡尾上町、平賀町、碇關村合併誕生。市名來自於岩木川的支流平川。當初本來是打算由弘前市、黑石市、岩木町、相馬村、西目屋村、藤崎町、大鰐町、尾上町、平賀町、常盤村、田舍館村、碇關村合併成新「弘前市」，但由于合併方式、新市名、議員數的糾紛而導致合併協議破裂，最終決定由尾上町、平賀町、碇關村合併為現在的平川市。
岩手县,釜石市,39.2758,141.8856,釜石市（日语：釜石市／かまいしし Kamaishi shi ）是日本岩手縣東南部的一市。旧上閉伊郡、氣仙郡。該城市為日本近代鋼鐵工業發展的重要城市，極盛期曾達到9萬人口，但在鋼鐵廠关闭後，人口回落至今。於2011年3月11日發生的大地震中，因受海嘯襲擊，部分地區被水淹沒。
岩手县,宮古市,39.6414,141.9572,宮古市（日语：宮古市／みやこし Miyako shi ）為東北地方北部，岩手縣三陸海岸的都市，舊為東閉伊郡（日语：東閉伊郡）。於2011年3月11日發生的大地震中，因受海嘯襲擊，部分地區被水淹沒。
岩手县,一关市,38.93472,141.1265,一關市（日语：一関市／いちのせきし Ichinoseki shi ）是日本本州東北部岩手縣城市。位在北上平原（日语：北上平野）南端，磐井川（日语：磐井川）與北上川匯合處。與宮城縣栗原市相鄰。為岩手縣內人口僅次於盛岡市的內陸都市，四周被山地所環繞。
岩手县,大船渡市,39.0822,141.7083,大船渡市（日语：大船渡市／おおふなとし Ōfunato shi ）是位于岩手縣南部海岸的一市。是岩手縣沿岸南部地区的中心都市。
岩手县,花卷市,39.3886,141.1167,花卷市（日语：花巻市／はなまきし Hanamaki shi ）為岩手縣位于中西部的市。市域西部為花卷溫泉鄉（日语：花巻温泉郷），與北上市形成岩手縣內人口第二多的北上都市圈（日语：北上都市圏）。為宮澤賢治的誕生地。現任市長為大石滿雄。
岩手县,北上市,39.2867,141.1131,北上市（日语：北上市／きたかみし Kitakami shi ）是日本岩手縣西南部的城市，位於北上盆地（日语：北上盆地）的中央。1954年由黑澤尻町、飯豐村、二子村、更木村、鬼柳村、相去村及福岡村（日语：福岡村 (岩手県)）合併設立北上市，1991年和賀町、江釣子村併入，成為了今天的北上市。
岩手县,久慈市,40.1903,141.7753,久慈市（日语：久慈市／くじし Kuji shi ）是位於日本岩手縣北部的市，東面瀕臨太平洋。
岩手县,远野市,39.3275,141.5336,遠野市（日语：遠野市／とおのし Tōno shi ）是位於日本岩手縣的內陸城市。最為有名是關於河童和座敷童子的遠野民話。縣內第二高峰早池峰山的一部分亦歸本市管轄。
岩手县,陆前高田市,39.0153,141.6294,陸前高田市（日语：陸前高田市／りくぜんたかたし Rikuzentakata shi ）是日本岩手縣東南部的一個城市。1955年1月1日設立。鄰接縣內大船渡市、一關市、住田町、及宮城縣氣仙沼市。
岩手县,二戶市,40.2711,141.3047,二戶市（日语：二戸市／にのへし Ninohe shi ）是位于岩手縣内陸部北端的一市。
岩手县,八幡平市,39.9264,141.0953,八幡平市（日语：八幡平市／はちまんたいし Hachimantai shi ）是位于岩手縣西北部的一市。設立于2005年（平成17年）9月1日，由岩手郡西根町（日语：西根町）、同郡松尾村（日语：松尾村 (岩手県)）、同郡安代町（日语：安代町）合併誕生。
岩手县,奧州市,39.1444,141.1389,奧州市（日语：奥州市／おうしゅうし Ōshū shi ）是位於日本岩手縣的市，地處東北地方中部、岩手縣西南部、胆澤平原，為縣內人口第二多的主要都市。
岩手县,瀧澤市,39.7347,141.0769,瀧澤市（日语：滝沢市／たきざわし Takizawa shi ）是岩手縣中部的一市。2014年（平成26年）1月1日，施行市制。
宫城县,仙台市,38.2683,140.8694,仙台市（日语：仙台市／せんだいし Sendai shi ，舊字體：仙臺市）是日本宮城縣縣治，位於宮城縣中部，為政令指定都市，同時也是東北地方最大的城市。該市得名於古稱千代城的古城「仙台城」，於1600年由安土桃山時代名將伊達政宗擴建並改名為同音的仙台。由於全市綠化比例高，而有“杜之都”（森林之都）之譽。
宫城县,石卷市,38.4281,141.3061,石卷市（日语：石巻市／いしのまきし Ishinomaki shi ）是位于宮城縣東部的一市。為宮城縣內人口第二大城市。
宫城县,盐灶市,38.3144,141.0222,鹽竈市（日语：塩竈市／しおがまし Shiogama shi ），俗作「鹽釜市」（塩釜市），是日本宮城縣的一個市級次行政區，位于太平洋沿岸的仙台灣（日语：仙台湾）內、宮城縣的中央。該市是宮城縣內的市町村中人口密度最高的一個城市。
宫城县,大崎市,38.5772,140.9556,大崎市（日语：大崎市／おおさきし Ōsaki shi ）是位于宮城縣西北部，屬大崎地方的一市。設立于2006年3月31日，由古川市、遠田郡田尻町、志田郡三本木町・松山町・鹿島台町、玉造郡岩出山町・鳴子町1市6町新設合併誕生。是宮城縣內人口僅次于仙台市、石卷市的第三大城市，面積僅次于接壤的栗原市位居第2。
宫城县,氣仙沼市,38.9083,141.57,氣仙沼市（日语：気仙沼市／けせんぬまし Kesennuma shi ）是位於日本宮城縣東北端、太平洋沿岸三陸海岸的一個市，以盛產魚翅而聞名。也是日本最早倡議“慢食”的城市。
宫城县,白石市,38.0022,140.6197,白石市（日语：白石市／しろいしし Shiroishi shi ）是宮城縣最南端的一市。面積28647平方公里，總人口39121人。
宫城县,名取市,38.1717,140.8919,"名取市（日语：名取市／なとりし Natori shi ）為一宮城縣中央地區的市，位于仙台市東南方。仙台機場位于該市。面積10006平方公里，總人口68,900人。現任市長為佐佐木十一郎。"
宫城县,角田市,37.9772,140.7819,角田市（日语：角田市／かくだし Kakuda shi ）是位于宮城縣南部的一市。
宫城县,多賀城市,38.2939,141.0044,多賀城市（日语：多賀城市／たがじょうし Tagajō shi ）是位于宮城縣中部的一市。陸奥國府「多賀城」的所在地。是仙台市的住宅城市中人口僅次于名取市的第二的城，目前人口仍在增加。
宫城县,岩沼市,38.1044,140.87,岩沼市（日语：岩沼市／いわぬまし Iwanuma shi ）是位于東北地方中東部，宮城縣阿武隈川河口的一市。旧為名取郡。
宫城县,栗原市,38.7303,141.0214,栗原市（日语：栗原市／くりはらし Kurihara shi ）是位于宮城縣西北部的一市。
宫城县,登米市,38.6919,141.1878,登米市（日语：登米市／とめし Tome shi ）是位於宮城縣北部，與岩手縣接壤的一市。設立於2005年4月1日，由登米郡8町（迫町、登米町、南方町、東和町、中田町、豐里町、米山町、石越町）與本吉郡津山町合併誕生。
宫城县,東松島市,38.4264,141.2106,東松島市（日语：東松島市／ひがしまつしまし Higashimatsushima shi ）是位于宮城縣中部的一市。設立于2005年4月1日，由桃生郡矢本町、鳴瀨町合併成立。
秋田县,能代市,40.2122,140.0267,"能代市（日语：能代市／のしろし Noshiro shi ）為秋田縣北部面向日本海的一個市。市域面積42674平方公里，總人口63,118人。"
秋田县,橫手市,39.3106,140.5533,"橫手市（日语：横手市／よこてし Yokote shi ）是秋田縣南部的市。2005年（平成17年）10月1日、旧橫手市與旧平鹿郡管轄的增田町、平鹿町、雄物川町、大森町、十文字町、山內村、大雄村合併，新橫手市誕生。橫手市是縣內僅次于秋田市的第二大城市，也是除了秋田市外縣內唯一一個人口多于十萬的城市。市區面積69360平方公里，總人口104,389人。"
秋田县,大館市,40.2717,140.5647,大館市（日语：大館市／おおだてし Ōdate shi ）是位于秋田縣北部的市。
秋田县,男鹿市,39.8867,139.8478,"男鹿市（日语：男鹿市／おがし Oga shi ）是秋田縣西部面向日本海的市。占去了男鹿半島的大半地域。市域面積24080平方公里，總人口34,996人。"
秋田县,湯澤市,39.1644,140.4958,"湯澤市（日语：湯沢市／ゆざわし Yuzawa shi ）是日本秋田縣的市。在古代作為秋田縣的（羽後國）南大門而得到發展。原市長（2002～2009年）鈴木俊夫是全日本5個日本共產黨員市長之一（其他四人為東京都狛江市長矢野裕、大阪府東大阪市長長尾淳三、岩手縣陸前高田市長中里長門、埼玉縣蕨市長賴高英雄）。市域面積79072平方公里，總人口50,902人。"
秋田县,鹿角市,40.2158,140.7883,鹿角市（日语：鹿角市／かづのし Kazuno shi ）為秋田縣北部的市。古名「上津野」。
秋田县,由利本莊市,39.3858,140.0489,"由利本莊市（日语：由利本荘市／ゆりほんじょうし Yurihonjō shi ）為日本秋田縣南部面向日本海的市。2005年3月22日，本莊市與由利郡7町（矢島町、岩城町、由利町、西目町、鳥海町、東由利町、大內町）合併而成。市域面積1,20904平方公里，總人口89,059人。"
秋田县,潟上市,39.8833,139.9889,"潟上市（日语：潟上市／かたがみし Katagami shi ）為秋田市西北部、男鹿市東南方的市。該市人口呈增加趨勢，在人口負成長的秋田縣內屬少數的幾個案例。八郎潟位于該市。市域面積9796平方公里，總人口35,908人。"
秋田县,大仙市,39.4531,140.4756,"大仙市（日语：大仙市／だいせんし Daisen shi ）是一座位于秋田縣東南部的城市。設立于2005年3月22日，是由大曲市、仙北郡神岡町、西仙北町、中仙町、協和町、南外村、仙北町、太田町合併而誕生的新城市。市區面積86667平公里，總人口94,513人。日本动漫作品蜡笔小新中小新的父亲野原广志出生在原秋田县的大曲市，在动画中也多次出现该地的场景。"
秋田县,仁賀保市,39.2031,139.9078,"仁賀保市（日语：にかほ市／にかほし Nikaho shi ）是秋田縣西南部的市，也是該縣唯一以平假名命名的市。誕生于2005年10月1日，由由利郡仁賀保町、金浦町、象潟町合併而成。加上2005年3月由利本莊市的誕生，由利郡自此不再存在。市域面積24061平方公里，總人口27,245人。"
山形县,米泽市,37.9167,140.1167,米澤市（日语：米沢市／よねざわし Yonezawa shi ）為東北地方南部、山形縣東南部的都市。置賜地方的中心都市，置賜綜合支廳的所在地。旧為南置賜郡及東置賜郡。
山形县,鹤冈市,38.7217,139.8217,鶴岡市（日语：鶴岡市／つるおかし Tsuruoka shi ）位於日本山形縣南部，瀕臨日本海。該市成立於1924年10月1日，為日本第100個城市。鶴岡市的人口位居山形縣的第二位，僅次於山形市。
山形县,酒田市,38.9144,139.8364,酒田市（日语：酒田市／さかたし Sakata shi ）為山形縣西北部的市，人口數位居縣內第三位。為庄內地方北部的中心都市，也是山形縣內重要的港灣城市。
山形县,新庄市,38.7647,140.3019,新庄市（日语：新庄市／しんじょうし Shinjō shi ），是位於日本山形縣東北的市。成立於1949年4月1日。
山形县,寒河江市,38.3811,140.2761,寒河江市（日语：寒河江市／さがえし Sagae shi ）是位于山形縣中部的一個人口約4万3千人的市。與周邊自治体并為櫻桃產地。
山形县,上山市,38.1497,140.2678,上山市（日语：上山市／かみのやまし Kaminoyama shi ）是位于山形縣東南部的一個人口約3万5千人的市。
山形县,长井市,38.1078,140.0406,長井市（日语：長井市／ながいし Nagai shi ）是位于山形縣南部的一個人口約3万人的市。
山形县,天童市,38.3622,140.3783,天童市（日语：天童市／てんどうし Tendō shi ）為一位于山形縣東部的市。以将棋駒（日语：將棋駒）和溫泉聞名。近年來發展成為山形市的臥城。
山形县,東根市,38.4314,140.3911,東根市（日语：東根市／ひがしねし Higashine shi ）是位于山形縣中部的一個人口約4万6千人的市。是日本櫻桃產量最高的地區，代表品種為佐藤錦。
山形县,尾花澤市,38.6008,140.4058,尾花澤市（日语：尾花沢市／おばなざわし Obanazawa shi ）是位于山形縣東北，人口約2万人的市。是尾花澤牛與西瓜的產地
山形县,南阳市 (日本),38.0553,140.1483,南阳市（日语：南陽市／なんようし Nanyō shi ）是位於日本本州岛东北部的山形县的城市，位于置赐盆地的北部。
福岛县,會津若松市,37.4947,139.9297,會津若松市（日语：会津若松市／あいづわかまつし Aizuwakamatsu shi ）是日本福島縣西部（會津地方）的都市，也是會津地方的中心城市。在江戶時代這里是会津藩的城下町。由于在二戰中免于盟軍空襲等因素，這裡遺留了不少古蹟，成為了豐富的觀光資源。也因為是日本自古以來的兵家必爭之地，因此被稱為「武士之鄉」，目前以會津若松市為中心的會津若松都市圈的人口約有19萬人。
福岛县,福岛市,37.7608,140.4733,福島市（日语：福島市／ふくしまし Fukushima shi ）是日本東北地方福島縣中北部的一個城市，福島縣縣廳所在地。福島市內人口位于縣內第三位，僅次于磐城市和郡山市。以福島市為中心的福島都市圈人口有41萬，僅次于郡山都市圈位居縣內第二位（東北地方内6位）。
福岛县,白河市,37.1264,140.2108,白河市（日语：白河市／しらかわし Shirakawa shi ）為東北地方南部，福島縣中通南部的都市。
福岛县,须贺川市,37.2867,140.3728,須賀川市（日语：須賀川市／すかがわし Sukagawa shi ）是位于福島縣中部的一市。
福岛县,喜多方市,37.6511,139.8747,喜多方市（日语：喜多方市／きたかたし Kitakata shi ）是日本福島縣会津地方北部的一市。以喜多方拉面而聞名。
福岛县,相马市,37.7967,140.9197,相馬市（日语：相馬市／そうまし Sōma shi ）是東北地方南部，福島縣濱通北部，面向太平洋的一市。旧為宇多郡。
福岛县,二本松市,37.5847,140.4314,二本松市（日语：二本松市／にほんまつし Nihonmatsu shi ）是位于福島縣北部的一市。
福岛县,田村市,37.4414,140.5692,田村市（日语：田村市／たむらし Tamura shi ）是位于日本福島縣中部的一市。
福岛县,南相馬市,37.6422,140.9572,南相馬市（日语：南相馬市／みなみそうまし Minamisōma shi ）是福島縣濱通地方北部的市。
福岛县,伊達市 (福島縣),37.8189,140.5631,伊達市（日语：伊達市／だてし Date shi ）是福島縣北部的一個城市。設立于2006年1月1日，由伊達郡的伊達町、梁川町、保原町、靈山町、月舘町合併而成。
福岛县,本宮市,37.5133,140.3939,本宮市（日语：本宮市／もとみやし Motomiya shi ）是位于福島縣中通中部的市。設立于2007年1月1日，由安達郡本宮町與白澤村合併而成。是福島縣面積最小，人口也最少的市。
茨城县,石冈市,33333333,140.2833,石岡市（日语：石岡市／いしおかし Ishioka shi ）是位於日本關東地方北部、茨城縣南部的一市。是常陸國的國府所在地。
茨城县,結城市,36.3053,139.8775,結城市（日语：結城市／ゆうきし Yūki shi ）是位於茨城縣西部的一市。
茨城县,筑西市,36.3072,139.9831,W
茨城县,下妻市,36.1844,139.9675,下妻市（日语：下妻市／しもつまし Shimotsuma shi ）是位於茨城縣西部的一市。
茨城县,常陸太田市,36.5383,140.5311,常陸太田市（日语：常陸太田市／ひたちおおたし Hitachiōta shi ）是位於茨城縣東北部的一個人口約6萬人的市。
茨城县,高萩市,36.7136,140.7097,高萩市（日语：高萩市／たかはぎし Takahagi shi ）是位於茨城縣東北部的一市。
茨城县,北茨城市,36.8019,140.7511,北茨城市（日语：北茨城市／きたいばらきし Kitaibaraki shi ）是位於關東北部，茨城縣東北端的一市。
茨城县,常總市,36.0236,139.9939,常總市（日语：常総市／じょうそうし Jōsō shi ）是位於茨城縣西南部的一市。設立於2006年1月1日，由水海道市與石下町編入合併誕生，同時改名。
茨城县,笠间市,﻿36.345,140.3042,笠間市（日语：笠間市／かさまし Kasama shi ）是位於關東地方東北部，茨城縣中部的一個城市。是由舊笠間市、友部町、岩間町在2006年3月19日合併而成。近年來以笠間焼聞名，每年春秋兩季進行的陶器市集吸引了許多觀光客。
茨城县,取手市,35.9114,140.0503,取手市（日语：取手市／とりでし Torite shi ）是位於日本茨城縣南端的市。轄內的小堀地區為茨城縣位於利根川右岸的僅有的2個地區之一（另一個為猿島郡五霞町全體）。
茨城县,坂東市,36.0483,139.8889,坂東市（日语：坂東市／ばんどうし Bandō shi ）是位於茨城縣西南部的一市。2005年3月22日，岩井市與猿島郡猿島町合併成為坂東市。
茨城县,筑波市,36.0333,140.0667,"筑波市（日语：つくば市／つくばし Tsukuba shi ）是位於日本茨城縣南部的都市，以坐落於此的筑波科學城（筑波研究學園都市）為人熟知，集中了筑波大学、产业技术综合研究所（日语：産業技術総合研究所）、國土地理院等多個學術與研究機構。目前亦獲日本政府指定為業務核都市與國際會議觀光都市（日语：国際会議観光都市）。截止至2016年7月1日的统计数据，筑波市人口达到229,610人，共99,738户，人口密度为809人平方公里；全市面积为28372平方公里。"
茨城县,常陸那珂市,36.3964,140.5344,常陸那珂市（日语：ひたちなか市／ひたちなかし Hitachinaka shi ）是日本茨城縣下轄的一個市。設立於1994年11月1日，由勝田市與那珂湊市合併誕生。
茨城县,鹿嶋市,35.9658,140.645,鹿嶋市（日语：鹿嶋市／かしまし Kashima shi ）是位於关東地方東部，茨城縣東南部的一市。原來的郡名為「鹿島郡」，但为与佐贺县的鹿岛市区分，使用了「島」的异体字「嶋」。日本職業足球聯賽球隊鹿島鹿角的主球場茨城縣立鹿嶋足球場即位於市內。
茨城县,潮来市,35.9472,140.5553,潮來市（日语：潮来市／いたこし Itako shi ）是日本茨城縣下屬的行政區劃，位於該縣東南部，也是一個被湖泊與河流所包圍的水城。
茨城县,守谷市,35.9514,139.9756,守谷市（日语：守谷市／もりやし Moriya shi ）是茨城縣南部的一個住宅都市。
茨城县,常陸大宮市,36.5517,140.4119,常陸大宮市（日语：常陸大宮市／ひたちおおみやし Hitachiōmiya shi ）是茨城縣西北部的一市。2004年10月16日設立，由那珂郡大宮町將那珂郡山方町、美和村、緒川村、東茨城郡御前山村4町村編入合併誕生。
茨城县,那珂市,36.4575,140.4867,那珂市（日语：那珂市／なかし Naka shi ）是位于茨城縣北部的一市。設立于2005年（平成17年）1月21日，由那珂郡那珂町及同郡瓜連町編入合併，市制施行成立。
茨城县,稻敷市,35.9567,140.3239,稻敷市（日语：稲敷市／いなしきし Inashiki shi ）是茨城縣南的一市，以祇園祭而聞名。
茨城县,霞浦市,36.1519,140.2372,霞浦市（日语：かすみがうら市／かすみがうらし Kasumigaura shi ）是茨城縣南部的一市。
茨城县,櫻川市,36.3272,140.0906,櫻川市（日语：桜川市／さくらがわし Sakuragawa shi ）是茨城縣西部的一市。設立于2005年10月1日，由西茨城郡岩瀬町、真壁郡真壁町、大和村合併誕生。
茨城县,行方市,35.9903,140.4892,行方市（日语：行方市／なめがたし Namegata shi ）是茨城縣東南部的一市。設立于2005年9月2日，由行方郡的麻生町、北浦町、玉造町3町合併誕生。
茨城县,鉾田市,36.1586,140.5164,鉾田市（日语：鉾田市／ほこたし Hokota shi ）是位于茨城縣東南部的一市。
茨城县,筑波未来市,35.9631,140.0372,筑波未來市（日语：つくばみらい市／つくばみらいし Tsukubamirai shi ）是茨城縣南部的一市。設立于2006年3月27日，由筑波郡伊奈町與谷和原村合併成立。
茨城县,小美玉市,36.2394,140.3525,小美玉市（日语：小美玉市／おみたまし Omitama shi ）是位于茨城縣中南部的一市。設立于2006年3月27日，由東茨城郡小川町、美野里町、新治郡玉里村合併誕生。
栃木县,足利市,36.3403,139.4497,足利市（日语：足利市／あしかがし Ashikaga shi ）是栃木縣西南部的一個人口約16万人的市。與相隣的太田市、桐生市并兩毛地方的中心城市。距离东京市中心都心70公里。自中古以來以清和源氏的義家流・足利氏的發祥地「足利庄」而聞名。
栃木县,栃木市,36.38244,139.7341,栃木市（日语：栃木市／とちぎし Tochigi shi ）是栃木縣南部的一市。是栃木縣南部的行政中心都市。廢藩置縣後一度為舊栃木縣（現在栃木縣南部與群馬縣一部分）的縣廳所在地。
栃木县,佐野市,36.3144,139.5783,佐野市（日语：佐野市／さのし Sano shi ）是栃木縣西南部（安足）的一市。旧安蘇郡。2005年2月28日設立，由旧佐野市、安蘇郡田沼町、同郡葛生町新設合併成立。人口約12萬，次于足利市位居縣內第四位。
栃木县,鹿沼市,36.5672,139.745,鹿沼市（日语：鹿沼／かぬまし Kanuma shi ）是關東北部，栃木縣中部的一市。
栃木县,日光市,6.719833,139.6981,日光市（日语：日光市／にっこうし Nikkō shi ）是位於日本關東地方北部、栃木縣西北部的市，是一个集山岳、湖沼、瀑布等自然风景與神社景觀为一体的国际观光文化都市，年间约有近600万日本国内外的游客到此旅遊。該市境內的「日光的神社與寺院」於1999年由聯合國教科文組織登錄為世界遺產，並劃設在日光國立公園範圍內。
栃木县,小山市,36.3147,139.8003,小山市（日语：小山市／おやまし Oyama shi ）是栃木縣南部的一市。人口約16万人，2005年12月，超過了足利市，成為縣內僅次于宇都宮市的人口第二大市。
栃木县,真冈市,36.4403,140.0131,真岡市（日语：真岡市／もおかし Mooka shi ）是栃木縣東南部的一市。
栃木县,大田原市,66666667,140.0166,大田原市（日语：大田原市／おおたわらし Ohtawara shi ）是栃木縣東北部的一市，是栃木縣北地区的政治、經濟、文化、行政的中心都市。2005年10月1日，將鄰接的那須郡湯津上村與同郡黑羽町編入，人口約8万人。
栃木县,矢板市,36.8067,139.9242,矢板市（日语：矢板市／やいたし Yaita shi ）是栃木縣北部的一市。
栃木县,那须盐原市,36.9617,140.0461,那須鹽原市（日语：那須塩原市／なすしおばらし Nasushiobara shi ）是栃木縣東北部的一市，設立於2005年1月1日，黑磯市、那須郡西那須野町、同郡鹽原町新設合併成立。人口約11萬，次於佐野市位居縣內第五，是縣北人口最多的市。那須鹽原西面有著名的那須溫泉，日本皇室在此建有避暑休閒的御用宅邸。
栃木县,櫻市,36.6853,139.9664,櫻市（日语：さくら市／さくらし Sakura shi ）是栃木縣中部的一市。設立于2005年，由鹽谷郡氏家町、喜連川町新設合併誕生。
栃木县,那须乌山市,36.6569,140.1517,那須烏山市（日语：那須烏山市／なすからすやまし Nasukarasuyama shi ）是日本的一市。位于栃木縣東部。人口約3萬人，是栃木縣東部地區的政治、經濟、行政的據點都市。設立于2005年（平成17年）10月1日，由那須郡烏山町與同郡南那須町 新設合併成立。
栃木县,下野市,36.3872,139.8422,下野市（日语：下野市／しもつけし Shimotsuke shi ）是栃木縣南部的一市。2006年1月10日，與河內郡南河內町與下都賀郡國分寺町、同郡石橋町新設合併成立。
群马县,高崎市,36.3167,139,高崎市（日语：高崎市／たかさきし Takasaki shi ）是日本群马县西南部的城市。
群马县,桐生市,36.4053,139.3306,桐生市（日语：桐生市／きりゅうし Kiryū shi ）是日本群馬縣東部的一個城市。在過去以生產桐生織而聞名。該市歷史悠久，擁有眾多文化遺產，有「東部小京都」之稱。除此以外，棒球運動在該市也非常發達。現人口約有13万人。
群马县,太田市,36.2917,139.3758,"太田市（日语：太田市／おおたし Ōta shi ）位于關東地方北部，群馬縣東南部（東毛）地區的城市。人口約有21万9,000。該市是北關東規模最大的工業都市。與相隣的足利市、桐生市并兩毛地方的中心城市。在2005年3月28日進行合并后人口突破了20萬，現為施行時特例市。"
群马县,沼田市,0.6439271,139.0427,沼田市（日语：沼田市／ぬまたし Numata shi ）是日本群馬縣北部的城市。在中世時期是沼田城的城下町，也是關東平原上重要的軍事要塞。
群马县,馆林市,﻿36.245,139.5422,館林市（日语：館林市／たてばやしし Tatebayashi shi ）是群馬縣東南部的城市。在古代是以城下町的形式發展。現任市長為須藤和臣。現在的上皇后美智子的祖父與父親的出身地就在該市。
群马县,安中市,36.3264,138.8872,安中市（日语：安中市／あんなかし Annaka shi ）是群馬縣西南部的城市，人口約有6萬5千人。在江戶時代這里既是中山道途中的宿場町，也是安中藩的城下町。
群马县,綠市,36.3947,139.2811,綠市（日语：みどり市／みどりし Midori shi ）是一位於日本群馬縣東部的城市。該市是群馬縣自1958年設立了安中市之後，在漫長的48年間唯一新設的市級行政單位。綠市成立于2006年3月27日，是由新田郡笠懸町、山田郡大間間町、勢多郡東村等地方單位合併而成的，也是群馬縣下屬的第12個城市。人口約有5万3000人，是群馬縣內人口最少的城市。在該市誕生后，新田郡和山田郡也一同步入歷史不再存在。
埼玉县,熊谷市,36.1472,139.3886,熊谷市（日语：熊谷市／くまがやし Kumagaya shi ）是位於埼玉縣北部，人口約20萬人的城市，也是埼玉縣北方代表的主要城市之一。在江戶時期這裡是屬於中山道的宿場，稱為熊谷宿，所以這裡是一個以宿場町而繁榮的地方。目前市內有主要幹線的國道17號（中山道）等，鐵路也有上越新幹線等通行，屬於一個重要的交通要地。同時，熊谷市的農業生產額是僅次於深谷市，為埼玉縣第二大額度的城市，商品販賣、製造生產等，也都擁有重要的地位，是埼玉縣北部一個重要的經濟據點。
埼玉县,川口市,35.8078,139.7242,川口市（日语：川口市／かわぐちし Kawaguchi shi ）是位於日本埼玉縣東南部的都市，同時是中核市之一，位於荒川北岸。人口有59萬人（2020年6月統計資料），為埼玉縣第二大都市。往東京都內的通勤率達322%（不計舊鳩谷市，平成22年國勢調査）。
埼玉县,行田市,36.1389,139.4558,行田市（日语：行田市／ぎょうだし Gyōda shi ）是埼玉縣北部的一個人口約8萬人的市。
埼玉县,秩父市,35.9917,139.0856,秩父市（日语：秩父市／ちちぶし Chichibu shi ）是埼玉縣西部的一個人口約6萬人的市。面積約578km²，是埼玉縣内面積最大的市町村。
埼玉县,所泽市,35.7994,139.4689,所澤市（日语：所沢市／ところざわし Tokorozawa shi ）是日本埼玉縣南部的城市。其人口數量在埼玉縣內僅次于埼玉市和川口市，位居第三。目前是施行時特例市及彩之國中核都市。往東京都特別區的通勤率達254%（平成22年國勢調査）
埼玉县,饭能市,35.8558,139.3278,飯能市（日语：飯能市／はんのうし Hannō shi ）是日本埼玉縣西南部的一個人口約8万5千人的市。市街地主要集中于東南部地區，是東京都的住宅城市之一。
埼玉县,加須市,36.1314,139.6019,加須市（日语：加須市／かぞし Kazo shi ）是埼玉縣東北部的市。是日本難讀地名之一。該市是日本最大的鯉魚旗產地。
埼玉县,本庄市,36.2439,139.1903,本庄市（日语：本庄市／ほんじょうし Honjō shi ）是埼玉縣西北部的一市。過去在這里有中山道的宿場本庄宿（日语：本庄宿）。本庄宿是中山道中最大的宿場町，明治時代甚至有遷都本庄的計劃。
埼玉县,東松山市,36.0422,139.4,東松山市（日语：東松山市／ひがしまつやまし Higashimatsuyama shi ）是位于埼玉縣中央的一個人口約9萬人的市。
埼玉县,春日部市,35.9753,139.7525,春日部市（日语：春日部市／かすかべし Kasukabe shi ）是日本關東地方南部，埼玉縣東部的城市。與相鄰的越谷市一起被定為彩之國中核都市和業務核都市。往東京都特別區部的通勤率達211%，往埼玉市的通勤率為103%（平成22年國勢調査）。
埼玉县,狹山市,35.8531,139.4122,狭山市（日语：狭山市／さやまし Sayama shi ）是埼玉縣西南部，入間川（日语：入間川 (埼玉県)）流域的一個人口約15万人的市。
埼玉县,羽生市,36.1728,139.5486,羽生市（日语：羽生市／はにゅうし Hanyū shi ）是埼玉縣東北部的一個人口約5萬5千人的市。以衣料街而聞名。往加須市的通勤率為101%（平成22年國勢調査）。
埼玉县,鸿巢市,36.0658,139.5222,鴻巢市（日语：鴻巣市／こうのすし Kōnosu shi ）是埼玉縣東部中央，大宮台地北端的一個人口約11萬的市。往東京都特別區部的通勤率為146%（平成22年國勢調査），是东京的卧城。
埼玉县,深谷市,36.1975,139.2814,深谷市（日语：深谷市／ふかやし Fukaya shi ）是埼玉縣北部的一個人口約15萬人的市。
埼玉县,上尾市,35.9775,139.5933,上尾市（日语：上尾市／あげおし Ageo shi ）是埼玉縣中東部的一個人口約22萬的市。江戶時代時在此設有中山道的一個宿場上尾宿（日语：上尾宿）。
埼玉县,草加市,35.8256,139.8056,草加市（日语：草加市／そうかし Sōka shi ）是位於日本埼玉縣靠近東南方的都市，現為施行時特例市。在昭和30年（1955年）時，由草加町、谷塚村和新田村等合併成新設立的草加町之後，就大約確定了草加市的主要範圍。在昭和33年（1958年）11月1日正式成為埼玉縣內第21個實行市制的地區。之後大規模建立了住宅公寓，以及東武鐵道和帝都高速度交通營團的互相合作運營，大幅增加了住戶之後，成為現在約有24萬人的城市。
埼玉县,越谷市,35.8911,139.7908,越谷市（日语：越谷市／こしがやし Koshigaya shi ）是位於日本埼玉縣東南部的市，為中核市、業務核都市和保健所政令市。人口約34萬，是埼玉縣第4大都市，僅次於埼玉市、川口市與川越市。
埼玉县,蕨市,35.8256,139.6794,"蕨市（日语：蕨市／わらびし Warabi shi ）是日本埼玉縣東南部的一個市。面積僅51平方公里，是全日本面積最小的市，若將區町村也算入，則是日本第11小的自治體。人口約7万人，人口密度每平方公里14,675人，是全日本的市最高。若按五十音順來排列，該市是日本排序最后的一個市。"
埼玉县,戶田市,35.8175,139.6778,戶田市（日语：戸田市／とだし Toda shi ）是埼玉縣南部的一個人口約14萬人的市，是埼玉縣最接近東京都的地區之一。
埼玉县,入間市,35.8358,139.3911,入間市（日语：入間市／いるまし Iruma shi ）是埼玉縣西南部的一個人口約14萬8千人的市。是狹山茶的主要產地。
埼玉县,朝霞市,35.7972,139.5936,朝霞市（日语：朝霞市／あさかし Asaka shi ）是埼玉縣南部、武藏野台地中北端的一個人口約12万7千人的市。
埼玉县,志木市,35.8367,139.5803,志木市（日语：志木市／しきし Shiki shi ）是埼玉縣南部的一個人口約6万8千人的市。
埼玉县,和光市,35.7814,139.6058,和光市（日语：和光市／わこうし Wakō shi ）是日本埼玉縣南部的一個人口約8萬1千人的市。該市是近十年來埼玉縣內人口成長率最高的市，也是全日本人口成長最快的10個市之一。
埼玉县,新座市,35.7933,139.5653,新座市（日语：新座市／にいざし Niiza shi ）是日本埼玉縣南部一個人口約15万6千人的市。
埼玉县,桶川市,36.0028,139.5583,桶川市（日语：桶川市／おけがわし Okegawa shi ）是埼玉縣中東部的一個人口約7万5千人的市。它由江户時代中山道的宿場町和桶川宿发展而来。江户時代这片地区栽有大量紅花，称「桶川臙脂」。
埼玉县,久喜市,36.0622,139.6669,久喜市（日语：久喜市／くきし Kuki shi ）是一個位於埼玉縣東部的市。2010年（平成22年）3月23日，原有的久喜市與北葛飾郡鷲宮町、栗橋町、南埼玉郡菖蒲町合併為現時的久喜市。
埼玉县,北本市,36.0269,139.53,北本市（日语：北本市／きたもとし Kitamoto shi ）是埼玉縣東部中央的一個人口約7万人的市。
埼玉县,八潮市,35.8228,139.8392,八潮市（日语：八潮市／やしおし Yashio shi ）是埼玉縣東南部的一個人口約7万8千人的市。
埼玉县,富士見市,35.8567,139.5492,富士見市（日语：富士見市／ふじみし Fujimi shi ）是埼玉縣東南部的一個人口約10万9千人的市。
埼玉县,三乡市,35.8303,139.8725,三鄉市（日语：三郷市／みさとし Misato shi ）是埼玉縣東南端的一個人口約13萬人的市。
埼玉县,莲田市,35.9942,139.6622,蓮田市（日语：蓮田市／はすだし Hasuda shi ）是埼玉縣中東部的一個人口約6万人的市。和埼玉市接壤。
埼玉县,坂戶市,35.9572,139.4031,坂戶市（日语：坂戸市／さかどし Sakado shi ）是埼玉縣中部的一個人口約10万人的市。1976年（昭和51年）9月1日設立，由坂戶町施行市制后移行。
埼玉县,幸手市,36.0781,139.7258,幸手市（日语：幸手市／さってし Satte shi ）是埼玉縣東部的一個人口約5萬人的市。是埼玉縣中人口最少的市。
埼玉县,鹤岛市,35.9344,139.3931,鶴島市（日语：鶴ヶ島市／つるがしまし Tsurugashima shi ）是埼玉縣中部的一個人口約7万人的市。
埼玉县,日高市,35.9078,139.3392,日高市（日语：日高市／ひだかし Hidaka shi ）是埼玉縣西南部的一個人口約6萬人的市。
埼玉县,吉川市,35.8911,139.8414,吉川市（日语：吉川市／よしかわし Yoshikawa shi ）是埼玉縣東南部的一個人口約6萬人的市。
埼玉县,埼玉市,35.8617,139.6453,埼玉市（日语：さいたま市 Saitama shi ）是日本埼玉縣縣治，同時為政令指定都市、以及首都圈業務核都市，為關東地方的主要都市之一。成立於2001年5月1日，2003年4月1日升格為政令指定都市，2005年4月1日將東鄰的岩槻市併入。全市分為10個行政區，人口約128萬，是日本人口第9大都市。其市名使用平假名而沒有使用漢字，是日本主要都市中的特例。
埼玉县,富士見野市,35.8794,139.5197,富士見野市（日语：ふじみ野市／ふじみのし Fujimino shi ）是埼玉縣西南部的一個人口約10万人的市。2005年10月1日，由上福岡市及入間郡大井町（日语：大井町 (埼玉県)）合併誕生。
埼玉县,白岡市,36.0189,139.6769,白岡市（日语：白岡市／しらおかし Shiraoka shi ）是埼玉縣東部中央的一城市。於2012年10月1日由白岡町改制為白岡市。
千叶县,铫子市,35.7347,140.8267,銚子市（日语：銚子市／ちょうしし Chōshi shi ）是一個位在日本關東地方東部，千葉縣東北部的城市，是關東平原最東端，利根川流經該市北部之後注入太平洋。為日本少數的幾個漁港城市之一，除了漁業之外，醬油釀造也是銚子當地非常重要的產業之一。
千叶县,市川市,35.7219,139.9311,市川市（日语：市川市／いちかわし Ichikawa-shi ）是日本千葉縣西北部，人口約47万人的一个市。在千葉縣的人口相繼千葉市、船橋市、松戶市排名第4位。
千叶县,船桥市,35.6947,139.9825,船橋市（日语：船橋市／ふなばしし Funabashi shi ）是日本千葉縣西北部的城市，為日本人口最多的中核市，在縣內人口僅次於千葉市。
千叶县,馆山市,34.9967,139.87,館山市（日语：館山市／たてやまし Tateyama shi ）是千葉縣南部，房總半島南端的市，面東京灣岸（內房）。
千叶县,野田市,﻿35.955,139.8747,野田市（日语：野田市／のだし Noda shi ）是千葉縣西北部的市。2003年6月6日，東葛飾郡（日语：東葛飾郡）關宿町（日语：関宿町）（せきやどまち）編入後，成為千葉縣最北端的自治體。
千叶县,茂原市,35.4283,140.2881,茂原市（日语：茂原市／もばらし Mobara shi ）是位于千葉縣東部、九十九里平原南部的一市。該市的天然氣產量是日本第一。
千叶县,佐倉市,35.7239,140.2239,佐倉市（日语：佐倉市／さくらし Sakura shi ）是位于日本千葉縣北部的城市。人口約17萬，在千葉縣中排名第八。
千叶县,旭市,35.7203,140.6467,旭市（日语：旭市／あさひし Asahi shi ）是千葉縣東北部的一市。人口約7万人。位於九十九里濱最北端，夏季有很多來此海水浴的游客。
千叶县,习志野市,35.6808,140.0267,習志野市（日语：習志野市／ならしのし Narashino shi ）是千葉縣西北部的一市。人口約16万人，在千葉縣內位居第10。習志野市的市中心習志野町原名津田沼町，因為JR的津田沼站、京成電鐵的京成津田沼站和新京成電鉄的新津田沼站皆在此匯集，加上1977-78年的百貨公司進駐混戰的「津田沼戰爭」，「津田沼」這地名的流通度與「習志野」不遑多讓。以新市名命名的新習志野站目前正在打造成新都心。
千叶县,柏市,35.8544,139.9689,柏市（日语：柏市／かしわし Kashiwa shi ）是日本千叶县西北部的一个商业城市，目前為中核市、業務核都市。人口居千葉縣第五位。
千叶县,勝浦市,35.1525,140.3211,勝浦市（日语：勝浦市／かつうらし Katsuura shi ）是位于千葉縣房總半島的一市。人口未達兩萬，是千葉縣內人口最少的一市。以日本三大早市之一而有名。
千叶县,市原市,35.4981,140.1156,市原市（日语：市原市／いちはらし Ichihara shi ）位於千葉縣中央，面太平洋的一市。2007年製造品出貨總額僅次於愛知縣豐田市位居日本第二。面積位居千葉縣第一，人口約27万人，在千葉縣內位居第六，次于柏市。往千葉市的通勤率為154%（平成22年國勢調査）。
千叶县,流山市,35.8561,139.9025,流山市（日语：流山市／ながれやまし Nagareyama shi ）是千葉縣西北部東葛飾地區的城市。流山市所在地區是明治時代設立的葛飾縣（日语：葛飾県）縣廳所在地。流山市人口約17萬，在千葉縣中排列第8。
千叶县,八千代市,35.7225,140.0997,八千代市（日语：八千代市／やちよし Yachiyo shi ）是千葉縣西北部葛南地域（日语：東葛地域）的一市。位于千葉县西北部内陸地区。人口約19万人位居千葉縣內第七。為住宅團地發源地，現在以東葉高速線沿線為中心進行住宅區開發。往東京都特別區部的通勤率為266%（平成22年國勢調査）。
千叶县,我孫子市,35.8642,140.0283,我孫子市（日语：我孫子市／あびこし Abiko shi ）是日本千葉縣西北部東葛地域（日语：東葛地域）的市。往東京都特別區部的通勤率為323%，往柏市的通勤率為124%（平成22年(2010)國勢調査）。
千叶县,鸭川市,35.1142,140.0989,鴨川市（日语：鴨川市／かもがわし Kamogawa shi ）是千葉縣房總半島南部的一市。面太平洋、屬安房地方東部，是南房總、外房地域的中核都市。
千叶县,镰谷市,35.7769,140.0008,鎌谷市（日语：鎌ケ谷市／かまがやし Kamagaya shi ）是千葉縣西北部東葛地域（日语：東葛地域）的一市。往東京都特別區部的通勤率達274%，往船橋市為119%（平成22年國勢調査）。
千叶县,君津市,35.3306,139.9025,君津市（日语：君津市／きみつし Kimitsu shi ）位於日本千葉縣南部，原是一個農漁小鎮，1968年在這填海建成鋼鐵廠。1971年設市。
千叶县,富津市,35.3042,139.8569,富津市（日语：富津市／ふっつし Futtsu shi ）是千葉縣南部的一市。面東京灣，屬上總地方西南部。
千叶县,浦安市,35.6536,139.9017,浦安市（日语：浦安市／うらやすし Urayasu shi ）是日本千叶县的城市。因市內的东京迪士尼乐园而全國知名。
千叶县,八街市,35.6658,140.3183,八街市（日语：八街市／やちまたし Yachimata shi ）是千葉縣北部的一市，以農業為主。
千叶县,印西市,35.8322,140.1458,印西市（日语：印西市／いんざいし Inzai shi ）是千葉縣西北部，人口約10万人的一市。印西市與周邊2市是「千葉新市鎮（日语：千葉ニュータウン）」所在地，約有六成市民居住在此。在市政施行前，為全日本人口最多的町、印西市文化廳（市役所旁）前建有全國町村人口日本一紀念碑。
千叶县,白井市,35.7917,140.0564,白井市（日语：白井市／しろいし Shiroi shi ）是千葉縣西北部的一市。自明治以来，以梨樹的種植而聞名。往東京都特別區部的通勤率達287%（平成22年國勢調査）。
千叶县,富里市,35.7267,140.3431,富里市（日语：富里市／とみさとし Tomisato shi ）是千葉縣北部中央的一市。
千叶县,夷隅市,35.2539,140.3853,夷隅市（日语：いすみ市／いすみし Isumi shi ）是千葉縣房總半島東南部的一市。往茂原市的通勤率為102%（平成22年國勢調査）。
千叶县,匝瑳市,35.7078,140.5644,匝瑳市（日语：匝瑳市／そうさし Sōsa shi ）是千葉縣東北部的市。設立于2006年1月23日，由八日市場市與匝瑳郡（日语：匝瑳郡）野榮町（日语：野栄町）合併誕生。匝瑳（そうさ）這個地名即使是千葉縣內的人也有很多不會正確讀出，是日本的難讀地名之一。
千叶县,南房總市,35.0433,139.8403,南房總市（日语：南房総市／みなみぼうそうし Minamibōsō shi ）是千葉縣南部的市，位於安房地方西部。往館山市的通勤率達210%（平成22年國勢調査）。
千叶县,香取市,35.8978,140.4992,香取市（日语：香取市／かとりし Katori shi ）是千葉縣東北部的一市。設立于2006年3月27日，由佐原市與香取郡小見川町（日语：小見川町）、山田町（日语：山田町 (千葉県)）、栗源町（日语：栗源町）合併誕生。往成田市的通勤率有127%（平成22年國勢調査）。
千叶县,山武市,35.6028,140.4136,山武市（日语：山武市／さんむし Sanmu shi ）是千葉縣東部的市。設立于2006年3月27日，由成東町・山武町・蓮沼村・松尾町4町村合併誕生，以農漁業為主。BMW松尾維修中心設在此。
千叶县,大網白里市,35.5217,140.3211,大網白里市（日语：大網白里市／おおあみしらさとし Ōamishirasato shi ）是千葉縣東部的一個市級次級行政區，位在九十九里平原（日语：九十九里平野）的中央，面臨太平洋（九十九里濱）。大網白里市的前身是在1954年時設置的山武郡大網白里町，在2013年1月1日時升格為市。
东京都,立川市,35.6939,139.4194,立川市（日语：立川市／たちかわし Tachikawa shi ），日本東京都多摩地區市份。東京都特別區部通勤率達176%（2010年「平成22年國勢調査」）。
东京都,足立区,35.689381,139.69181,足立区（日语：足立区／あだちく Adachi ku ）是日本東京都的特別區之一。位于东京都的北部，是由夹于隅田川与荒川之间的部分、及占有足立区大半面积的荒川以北部分而组成。
东京都,荒川区,35.689381,139.69181,荒川区（日语：荒川区／あらかわく Arakawa ku ）是日本東京都區部之中的一个行政区。
东京都,文京区,35.689381,139.69181,文京区（日语：文京区／ぶんきょうく Bunkyō ku ）是日本東京都的23个特别區之一，劃分上屬於23區西部，實際位於中央偏北的位置，現任區長是成澤廣修。文京區的面積1131平方千米，在23區中位列倒数第4，佔東京都區部的50分之一[3]。
东京都,千代田区,35.689381,139.69181,千代田區（日语：千代田区／ちよだく Chiyoda ku ）是日本東京都的特別區之一，位於東京都區部的中心位置，在1947年（昭和22年）3月15日由麴町區與神田區（日语：神田区）合併而來，名稱來自於江戶城的別名「千代田城」。日本國會、首相官邸、最高法院、大部分中央行政機關，以及天皇住所皆座落於此，而區內的大手町、丸之內、有樂町等商圈，是許多日本大型企業總部的聚集地，因而使該區成為日本首屈一指的政治與經濟中樞。東京站、秋葉原、靖國神社、神保町古書街、日本武道館等著名景點亦位於該區內。
东京都,中央区 (东京都),35.689381,139.69181,中央区（日语：中央区／ちゅうおうく Chūō ku ）是日本東京都內的23個特別區之一，由於其位於23區的正中央位置之故，因而得名。
东京都,江戶川區,35.689381,139.69181,江户川区（日语：江戸川区／えどがわく Edogawa ku ）位于日本东京23区最东面，是东京都的特別区之一。总面积约为4986平方公里，其面积是东京23区中的第4位。区名源于位于区的东侧南北而流的江户川而来。
东京都,板橋區 (日本),35.689381,139.69181,板桥区（日语：板橋区／いたばしく Itabashi ku ）是日本东京都東部23個特別区之一，與埼玉縣相鄰。
东京都,葛饰区,35.689381,139.69181,葛饰区（日语：葛飾区／かつしかく Katsushika ku ），日本東京都區份，是一个由江户川、荒川围绕的水乡。位于葛饰区金町内的水元公园是东京都内唯一的水鄉公園。而位于柴又的柴又帝釋天则因世界最长的系列电影“寅次郎的故事”（「男人真命苦」，日語:男はつらいよ）的外景地而闻名日本。
东京都,北區 (東京都),35.689381,139.69181,北区（日语：北区／きたく Kita ku ）是日本東京都区部北部的特別區。
东京都,江東區 (東京都),35.689381,139.69181,江东区（日语：江東区／こうとうく Kōtō ku ）是日本東京都的特別區之一，位于东京都东部，南临东京湾，全區夹於隅田川与荒川之间。由於区内运河与桥梁众多，亦被称作为“水彩都市”。以海產聞名的築地市場（場內市場）也在2018年10月搬遷至此區，成為豐洲市場。
东京都,目黑区,35.689381,139.69181,目黑区（日语：目黒区／めぐろく Meguro ku ）是日本東京都下轄的特別區之一。
东京都,港區 (東京都),35.689381,139.69181,港區（日语：港区／みなとく Minato ku ）是日本東京都內23個特別區之一，是一个聚集着诸多外国大使馆、国际气氛浓厚的地区。
东京都,中野区,35.689381,139.69181,中野区（日语：中野区／なかのく Nakano ku ）是日本人口密度最高的底层住宅区域，位處東京都西部。区内产业主要以第三产业的服务业为中心，而事业所及从业人员个数则处于东京23区的中下位。
东京都,大田区,35.689381,139.69181,大田区（日语：大田区／おおたく Ōta ku ）是日本东京都的特別区之一，位于东京都东南、正对东京湾。自古以来是捕鱼业发达的地区、大正时代以后形成小作坊的聚集地、至今形成了京滨工业地带。区内的东京国际机场（羽田机场）是东京的空中门户。
东京都,世田谷区,35.689381,139.69181,世田谷区（日语：世田谷区／せたがやく Setagaya ku ），日本東京都區部之一，位于東京23区的南西部、通往都心部方便、以居住环境良好的住宅区而闻名的。為東京都特別區中面積第2大，人口最多者。
东京都,澀谷區,35.689381,139.69181,涩谷区（日语：渋谷区／しぶやく Shibuya ku ）是日本東京都的特别區之一，其名稱源自於位於該區中央、以澀谷站為中心的澀谷地區。
东京都,品川区,35.689381,139.69181,品川区（日语：品川区／しながわく Shinagawa ku ）是日本東京都的特別區之一，位於東京都的南部，東瀕东京湾，為東京市區聚集較多港口及工業設施的地帶。名稱是由境內河川目黑川的別名「品川」而來。
东京都,新宿区,35.689381,139.69181,新宿區（日语：新宿区／しんじゅくく Shinjuku ku ）是日本東京都的特別區之一，為東京都廳（都政府）所在地。區內的新宿站為東京主要的交通樞紐之一，而以新宿站為中心的商圈（包括新宿副都心），為東京乃至於整個日本首要的中心商業區。
东京都,杉并区,35.689381,139.69181,杉並区（日语：杉並区／すぎなみく Suginami ku ）是日本東京都的特別區之一。郵遞區號（前三碼）為166、167、168。
东京都,墨田区,35.689381,139.69181,墨田区（日语：墨田区／すみだく Sumida ku ）是日本東京都內23個特別區之一。其特点是一个夹于河川之间的城区。西边以隅田川为区的区境，而荒川及中川合致而成为东边的区境。2012年啟用，成為東京都新地標的東京晴空塔（東京スカイツリー）位於此區。
东京都,台东区,35.689381,139.69181,台東区（日语：台東区／たいとうく Taitō ku ）是日本東京都的特別區之一，為東京都各特別區中面積最小者。全區幾乎位於東京23區的中心，東接隅田川。區內擁有上野、浅草兩大繁華商圈，特產是皮革制品、人偶、玩具、傳統工藝品等。
东京都,丰岛区,35.689381,139.69181,豐島區（日语：豊島区／としまく Toshima ku ）是日本東京都內23個特別區之一，位在舊東京市的區域內西北角一帶。其命名由來源自日本政府進行「廢藩置縣」之前，武藏國豐島郡的古名，當東京市在進行行政區域擴大時，四個原屬北豐島郡的町被合併劃入東京市的範圍之內，而賦予豐島區的命名。
东京都,練馬區,35.689381,139.69181,"练马区（日语：練馬区／ねりまく Nerima ku ）位于日本东京23区的西北部。是东京23区中最新制定的一个区，人口數量為740,928（2019年7月1日推算），位于東京都23區第二位，僅次于世田谷區。练马区以拥有众多的漫画家而闻名，有「日本動漫發祥地」之稱。著名的日本漫畫《多啦A夢》及《忍者哈特利》的故事場景就在本區（光丘）。"
东京都,三鹰市,35.6833,139.5594,三鷹市（日语：三鷹市／みたかし Mitaka shi ）是日本東京都多摩地區最東邊的市。往東京都特別區部的通勤率達381%（2010年「平成22年國勢調査」）。
东京都,青梅市,35.7883,139.275,青梅市（日语：青梅市／おうめし Ōme shi ）是日本東京都多摩地區西部的城市，東京都的自治體之一。其面積在東京都內僅次于奧多摩町、八王子市、檜原村。
东京都,府中市 (東京都),35.6689,139.4778,府中市（日语：府中市／ふちゅうし Fuchū shi ）是位於日本東京都中央的一個城市。位於多摩地域。在古代此地已為武藏宿，交通及經濟非常發達，亦稱為武藏府中。多摩川流域之一。往東京都特別區部的通勤率達262%（2010年「平成22年國勢調査」）。
东京都,昭島市,35.7056,139.3536,"昭島市（日语：昭島市／あきしまし Akishima shi ）是日本東京都多摩地區的城市。是東京都內第七個市，誕生于1954年5月，由北多摩郡昭和町（日语：昭和町 (東京都)）和拜島村（日语：拝島村）併而成。現有人口112,561人，49,505戶（2007年3月1日）。面積1733km²，為東京都內的重要衛星城之一。往東京都特別區部的通勤率為151%，往立川市的通勤率達109%（2010年「平成22年國勢調査」）。"
东京都,调布市,35.6506,139.5408,調布市（日语：調布市／ちょうふし Chōfu shi ），日本東京都多摩地區東部行政區。南與神奈川縣接壤。多摩川流經該市。市區面積2153km²。
东京都,町田市,35.5486,139.4467,町田市（日语：町田市／まちだし Machida shi ）是位于日本關東地方南部、東京都多摩地方西南部的城市。往東京都特別區部的通勤率為221%（2010年「平成22年國勢調査」）。
东京都,小金井市,35.6994,139.5031,"小金井市（日语：小金井市／こがねいし Koganei shi ）是位于東京都多摩地區的城市。面積1133平方公里，總人口120,966人（2014年12月1日）。 往東京都特別區部的通勤率達398%（平成22年國勢調査）。UTC+9的時區線就在這地。"
东京都,小平市,35.7285,139.4774,小平市（日语：小平市／こだいらし Kodaira shi ）是位于東京都多摩地區的日本城市。市區面積2046平方公里。市制施行于1962年。往東京都特別區部的通勤率達291%（平成22年國勢調査）。
东京都,日野市,35.6714,139.395,日野市（日语：日野市／ひのし Hino shi ）為一位于東京都（不含島嶼部分）中央地帶的城市。從東京站乘坐中央線特別快速列車45分鐘即可到該市。面積2753km²。1963年（昭和38年）11月3日，該市開始實行市制，為全日本第559個市。汽車企業日野自動車的總部位於這裡。
东京都,東村山市,35.7547,139.4686,東村山市（日语：東村山市／ひがしむらやまし Higashimurayama shi ）為位于東京都多摩地區的城市。市區面積1717km² 平方公里。施行市制于1964年4月1日。
东京都,國分寺市,35.7108,139.4622,國分寺市（日语：国分寺市／こくぶんじし Kokubunji shi ）是位于東京都多摩地區的城市。市面積1148平方公里，人口密度超過每平方一萬人。施行市制于1964年。
东京都,國立市,35.6839,139.4414,"國立市（日语：国立市／くにたちし Kunitachi shi ）是位于東京都的一個城市。市區面積815平方公里（為全日本市區面積第四小的城市），總人口73,710人。于1965年施行市制。"
东京都,福生市,35.7386,139.3267,福生市（日语：福生市／ふっさし Fussa shi ）是位于日本東京都西部，多摩地區中西部的城市。距離都心約40公里，市域東西約36公里，南北約45公里，總面積1024平方公里，其中三分之一的面積為駐日美軍橫田基地所有，實際上的行政面積僅692平方公里。依此計算，本市在多摩地域僅大於狛江市，是全國第三小的市[2]，實質人口密度達8千人。本市人口自2001年（平成13年）12月後逐漸下滑[3]。
东京都,狛江市,35.6347,139.5786,"狛江市（日语：狛江市／こまえし Komae shi ）為位于東京都多摩地區東南端的城市。市區面積僅639平方公里，為東京都內面積最小的城市，也是全日本面積第二小的城市（僅次于埼玉縣蕨市）。總人口78,368人。而其人口密度卻高達每平方公里12,159人，位居全日本第三。"
东京都,東大和市,35.7456,139.4267,"東大和市（日语：東大和市／ひがしやまとし Higashiyamato shi ）為位于東京都多摩地區的城市。市區面積1354平方公里，總人口80,665人。施行市制于1970年10月1日。"
东京都,清瀨市,35.7858,139.5264,清瀨市（日语：清瀬市／きよせし Kiyose shi ）為位于東京都多摩地區東北部的城市。
东京都,東久留米市,35.7581,139.5297,東久留米市（日语：東久留米市／ひがしくるめし Higashikurume shi ）為位于東京都多摩地區的城市。市區面積1292平方公里。于1970年開始施行市制。
东京都,武藏村山市,35.7547,139.3875,武藏村山市（日语：武蔵村山市／むさしむらやまし Musashimurayama shi ）為位于東京都多摩地區北部的城市。面積1537平方公里。于1970年開始施行市制，原名村山町，但因山形縣已有村山市，故改名武藏村山市。
东京都,稻城市,35.6381,139.5047,"稻城市（日语：稲城市／いなぎし Inagi shi ）是位于東京都多摩地方的城市。市區面積1797平方公里，總人口77,978人。于1971年（昭和46年）11月1日其開始施行市制。"
东京都,羽村市,35.7672,139.3111,羽村市（日语：羽村市／はむらし Hamura shi ）是位于東京都西北部，多摩地方西部的城市。市區面積991平方公里（東京都內第三小，全日本第七小），為東京都內人口最少的城市。于1991年（昭和46年）11月1日其開始施行市制。
东京都,秋留野市,35.7289,139.2942,秋留野市（日语：あきる野市／あきるのし Akiruno shi ）是位于東京都西部。市區面積7334平方公里。設立于1995年9月1日，是由秋川市和五日市町合併而成的。
东京都,西东京市,35.7258,139.5386,"西東京市（日语：西東京市／にしとうきょうし Nishi tōkyō shi ）是位於日本東京都多摩地方的市，成立於2001年1月21日，由田無市和保谷市合併而成，為21世紀日本最早設立的市。市區面積1585平方公里，合併時人口有179,710人。人口密度超過每平方公里12,000人。"
神奈川县,平塚市,35.3231,139.3422,平塚市（日语：平塚市／ひらつかし Hiratsuka shi ）位於日本神奈川县中南部、面对相模湾，為施行時特例市。
神奈川县,藤泽市,35.33883,139.4911,藤澤市（日语：藤沢市／ふじさわし Fujisawa shi ）位於日本神奈川县中部。
神奈川县,小田原市,35.2647,139.1522,小田原市（日语：小田原市／おだわらし Odawara shi ）位於日本神奈川縣西部的一個城市，現為施行時特例市。設市前屬足柄下郡。
神奈川县,逗子市,35.2956,139.5803,逗子市（日语：逗子市／ずしし Zushi shi ）是位于日本神奈川县三浦半島底部、横滨市的南西、横须贺市的北西、镰仓市的南面、三浦郡叶山町北面的都市。逗子市也是神奈川縣的住宅区和高级住宅街（披露山庭园住宅）。為日本古都保存法的指定都市。
神奈川县,三浦市,35.1442,139.6206,三浦市（日语：三浦市／みうらし Miura shi ）是位于神奈川县南東部、三浦半島的一个市。城岛位於三浦市的最南端。
神奈川县,秦野市,35.3747,139.2203,秦野市（日语：秦野市／はだのし Hadano shi ）位於日本神奈川县中西部。市區，東西約136公里，南北約128公里，面積10361平方公里，為神奈川縣內19市中面積第4大。
神奈川县,大和市,35.4875,139.4581,大和市（日语：大和市／やまとし Yamato shi ）位於日本神奈川縣中央的都市。大和市原屬高座郡的一部分，其後於1959年2月1日升格為市，脫離高座郡。現時是神奈川縣其中一個施行時特例市。
神奈川县,伊勢原市,35.4028,139.315,伊勢原市（日语：伊勢原市／いせはらし Isehara shi ）位於日本神奈川縣中心的都市，位於該市西北的大山相當有名。
神奈川县,座間市,35.4886,139.4075,座間市（日语：座間市／ざまし Zama shi ）是位於日本神奈川縣中心的都市。
神奈川县,南足柄市,35.3206,139.1,南足柄市（日语：南足柄市／みなみあしがらし Minamiashigara shi ）位於日本神奈川县西部的一個城市。1972年4月1日實行市制。為神奈川縣中人口最少的市。
神奈川县,綾瀨市,35.4372,139.4269,綾瀨市（日语：綾瀬市／あやせし Ayase shi ）位於日本神奈川縣中心的都市。
新潟县,新潟市,37.9161,139.0364,新潟市（日语：新潟市／にいがたし Niigata shi ）是位於日本新潟縣東北部（下越地方）的市，為新潟縣首府，地處日本最長河流信濃川的入海口，是本州日本海側地區與北陸信越地方的第一大城、以及唯一的政令指定都市。身為港口都市（日语：港湾都市），新潟的開發歷史悠久，至江戶時代已是日本海沿岸重要港口之一，為幕末美日修好通商條約開港五港之一[2]，現在也是水陸交通的要衝。經過2005年的市町村合併後，全市人口超過80萬，並在2007年成為本州日本海側地區首個政令指定都市[3]。
新潟县,柏崎市,0.3719158,138.5589,"柏崎市（日语：柏崎市／かしわざきし Kashiwazaki shi ）為日本新潟縣的一個城市，面向日本海。市區面積44055平方公里，總人口94,033人。為新潟縣內人口第六多的城市，也是世界上所有拥有核電廠的城市中人口最多的。其境內的柏崎刈羽核能發電廠為全球最大核電廠。"
新潟县,村上市,38.22394,139.48,村上市（日语：村上市／むらかみし Murakami shi ）是位於日本新潟縣北部的市，同時也是新潟縣最北的市町村。建市於1954年3月31日；2008年4月1日，將岩船郡的荒川町、神林村、朝日村、山北町併入，組建新的「村上市」，成為新潟縣面積最大的市町村。其以鮭魚、牛肉以及「北限之茶」（日本最北的種茶地）而聞名。
新潟县,糸鱼川市,37.0333,137.8667,"糸魚川市（日语：糸魚川市／いといがわし Itoigawa shi ）為位于新潟縣最西端，面向日本海的城市。是世界上知名的玉產地。市區面積74624平方公里，總人口43,724人。市制施行于1954年，由西頸城郡的9町村（浦本村、下早川村、上早川村、大和川村、西海村、糸魚川町、大野村、根知村、小瀧村）合併而成。2005年（平成17年）3月19日，舊糸魚川市與能生町和青海町合併為現在的糸魚川市。現任市長為米田徹。"
新潟县,阿贺野市,37.83444,139.226,"阿賀野市（日语：阿賀野市／あがのし Agano shi ）是一位于新潟縣東北部的城市。市區面積19272平方公里，總人47,995人。誕生于2004年4月1日，是由新潟縣北蒲原郡安田町、水原町、京瀨村、笹神村4町村合併而成的新城市。"
富山县,射水市,36.7125,137.0994,"射水市（日语：射水市／いみずし Imizu shi ）為日本富山縣西部的市。為2005年11月1日、射水郡的全部町村（小杉町、大門町、大島町、下村）和新湊市合併城的新城市。市域面積10918平方公里，總人口94,885。"
石川县,轮岛市,37.3906,136.8992,"輪島市（日语：輪島市／わじまし Wajima shi ）為石川縣北部的一市，位于能登半島最北端，面向日本海。以輪島塗、朝市、御陣乘太鼓而聞名全日本。2006年2月1日，與相鄰的門前町新設合併為新的輪島市。面積42623平方公里，人口32,823人。"
石川县,珠洲市,37.4364,137.2603,"珠洲市（日语：珠洲市／すずし Suzu shi ）是石川縣東北部、能登半島最北端的市。面積24719平方公里，總人口15,171人。"
石川县,加賀市,36.3028,136.315,加賀市（日语：加賀市／かがし Kaga shi ）為位於日本石川縣西南部的城市，南側與福井縣接壤。
石川县,羽咋市,36.8936,136.7789,羽咋市（日语：羽咋市／はくいし Hakui shi ）是位于日本石川县的一座城市，建于1958年7月1日。
石川县,白山市 (日本),36.5144,136.5656,"白山市（日语：白山市／はくさんし Hakusan shi ）為一位於石川縣南部的市。面積為石川縣內第一，人口在縣內僅次於金澤市位居第二。市區面積75517平方公里，總人口109,472人。"
石川县,能美市,36.4375,136.4961,"能美市（日语：能美市／のみし Nomi shi ）為日本本州島石川縣南部加賀地區的市。前首相森喜朗与旅美職棒運動員松井秀喜出身于該地。面積8385平方公里，總人口48,958人。"
石川县,野野市市,36.5194,136.6097,"野野市市（日语：野々市市／ののいちし Nonoichi shi ）是石川縣中部的市，2011年11月11日，因人口突破5萬人而施行市制。面積1356平方公里，人口54,954人。"
福井县,福井市,36.06406,136.2195,福井市（日语：福井市／ふくいし Fukui shi ）位於日本福井縣中部的城市，也是縣內最主要的城市兼縣廳所在地，現為中核市。
福井县,小濱市,35.4956,135.7467,小濱市（日语：小浜市／おばまし Obama shi ）為位於日本福井縣西南部的城市。轄區南側位於丹波高地（日语：丹波高地），北部鄰小濱灣（日语：小浜湾），整個轄區大致位於南川)（日语：南川）、北川（日语：北川）、多田川（日语：多田川）這三條河川的流域內，這三條河川也在600公尺內的範圍中一同匯入小濱灣，主要市區即位於河口周邊的沖積平原上。
福井县,大野市,35.9806,136.4875,大野市（日语：大野市／おおのし Ōno shi ）是位於日本福井縣東北部的城市，轄區位於兩白山地內，主要是區位於西北側的大野盆地（日语：大野盆地）內。面積為福井縣內最大的行政區劃，占全縣面積的約五分之一，但轄內也有九成的區域為山林地。
福井县,勝山市,36.0608,136.5006,勝山市（日语：勝山市／かつやまし Katsuyama shi ）為位於日本福井縣東北部的城市，轄區主要位於兩白山地的勝山盆地（日语：勝山盆地）內，周邊為多座高度約在一千公尺的山峰所環繞，福井縣最主要的河川九頭龍川自南側進入轄內後，於勝山盆地內轉往西方流向永平寺町及福井市，勝山市的主要市區也位於九頭龍川於盆地內的右岸地區。
福井县,鲭江市,35.9567,136.1844,鯖江市（日语：鯖江市／さばえし Sabae shi ）為位於日本福井縣北部的城市，轄區位於鯖武盆地（日语：鯖武盆地）與福井平原（日语：福井平野）之間；是日本知名的眼鏡產地，亦是世界三大眼鏡產地之一，全日本有超過90%的眼鏡鏡架都由鯖江生產。[3]
福井县,芦原市,36.2114,136.2289,蘆原市（日语：あわら市／あわらし Awara shi ）為位於日本福井縣最北端的城市，轄區西南部屬於福井平原（日语：福井平野），東半部為山區，北側為加越台地（日语：加越台地），以北潟湖（日语：北潟湖）與石川縣為界。
福井县,越前市,35.9033,136.1692,越前市（日语：越前市／えちぜんし Echizen shi ）為位於日本福井縣北部的城市，為福井縣人口第三多的市。
福井县,坂井市,36.1669,136.2317,坂井市（日语：坂井市／さかいし Sakai shi ）是位於日本福井縣北部的城市，南側與福井市相鄰，現為福井縣內人口第二多的城市；轄區主要位於九頭龍川下游右岸的福井平原（日语：福井平野），西側臨日本海，東部則為位於兩白山地的山林地。
山梨县,富士吉田市,35.4875,138.8081,富士吉田市（日语：富士吉田市／ふじよしだし Fujiyoshida shi ）為山梨縣東南部的市。為富士五湖地方的中心都市。市南端即為富士山的山頂。
山梨县,都留市,35.5514,138.9056,都留市（日语：都留市／つるし Tsuru shi ）為山梨縣東部的市。
山梨县,山梨市,35.6922,138.6853,山梨市（日语：山梨市／やまなしし Yamanashi shi ）為山梨縣東部的市。是個「水果王國」。不僅出產著名的葡萄、連水蜜桃、李子都高居日本產量第一。且擁有桃花景致的勝地。
山梨县,大月市,35.6106,138.94,大月市（日语：大月市／おおつきし Ōtsuki shi ）為山梨縣東部的市。近年來由于都心回歸，該市的人口明顯減少。
山梨县,韮崎市,35.7089,138.4464,韮崎市（日语：韮崎市／にらさきし Nirasaki shi ）為山梨縣北部的市。現任市長為橫內公明（2006年就任）。
山梨县,南阿爾卑斯市,35.6083,138.465,南阿爾卑斯市（日语：南アルプス市／みなみアルプスし Minamiarupusu shi ）是日本山梨縣西部的城市，成立于2003年4月1日，由中巨摩郡八田村、白根町、蘆安村、若草町、櫛形町、甲西町合併而成。人口約有7万2000人，市公所設立在旧櫛形町。
山梨县,甲斐市,35.6608,138.5158,甲斐市（日语：甲斐市／かいし Kai shi ）是山梨縣西北部的城市，人口超過七萬人，是山梨縣內人口數量第二大的城市，僅次于縣府所在地甲府市，人口密度則居于縣內第一位。甲斐市是2004年由舊龍王町、舊敷島町、旧双葉町合并而成的新城市，市名來自古代令制國甲斐國。
山梨县,笛吹市,35.6472,138.64,笛吹市（日语：笛吹市／ふえふきし Fuefuki shi ）為山梨縣甲府盆地中央地區的一個市。成立于2004年10月12日，由東八代郡與東山梨郡6町村合併而成。
山梨县,北杜市,35.7767,138.4236,北杜市（日语：北杜市／ほくとし Hokuto shi ）為山梨縣內的一個城市。成立于2004年11月1日，由明野村、大泉村、須玉町、高根町、長坂町、白州町和武川村合併而成的市。位于山梨縣西北部，與長野縣接壤。跟北海道北斗市讀音相同。
山梨县,上野原市,35.6303,139.1086,上野原市（日语：上野原市／うえのはらし Uenoura shi ）為山梨縣東部的市。成立于2005年2月13日，由北都留郡上野原町與南都留郡秋山村合併而成。與東京都和神奈川縣相鄰。
山梨县,甲州市,35.7053,138.7294,甲州市（日语：甲州市／こうしゅうし Kōshū shi ）為山梨縣東北部的市。成立于2005年11月1日，由鹽山市和東山梨郡勝沼町・大和村合併而成。現任市長為田邊篤。
山梨县,中央市,35.5997,138.5172,中央市（日语：中央市／ちゅうおうし Chūō shi ）是山梨縣中南部的城市。2016年，該市被選為日本第31位適合居住的城市和山梨縣最適合居住的城市。
长野县,长野市,36.6486,138.1928,長野市（日语：長野市／ながのし Nagano shi ），是一個位在日本本州长野县北部的城市；該城市地处千曲川與犀川匯流處，為長野縣縣廳所在地，也是該縣人口最多的市。
长野县,上田市,36.4019,138.2492,上田市（日语：上田市／うえだし Ueda shi ）是位於日本長野縣東部（東信地方）上小地域（日语：上小地域）的主要城市，也是長野縣內人口次於長野市、松本市第三多的都市。
长野县,岡谷市,36.0669,138.0494,岡谷市（日语：岡谷市／おかやし Okaya shi ）是日本長野縣南信地方的市，為諏訪湖周邊的工業都市。
长野县,饭田市,35.5147,137.8219,飯田市（日语：飯田市／いいだし Iida shi ）是位於日本中部地方長野縣南部的一個都市，在江戶時代時是飯田藩所發展出來的一個城下町。
长野县,诹访市,36.0392,138.1142,諏訪市（日语：諏訪市／すわし Suwa shi ）是日本長野縣南信地方的市。
长野县,须坂市,11111111,138.3069,須坂市（日语：須坂市／すざかし Suzaka shi ）是日本長野縣北部的市。
长野县,伊那市,35.8275,137.9539,伊那市（日语：伊那市／いなし Ina shi ）是日本長野縣南部伊那谷北部的市。2006年（平成18年）3月31日，旧伊那市與高遠町（日语：高遠町）及長谷村（日语：長谷村）合併，新伊那市成立。
长野县,驹根市,35.7289,137.9339,駒根市（日语：駒ヶ根市／こまがねし Komagane shi ）為長野縣南部（南信地方）的都市。旧為上伊那郡。
长野县,中野市,36.7419,138.3694,中野市（日语：中野市／なかのし Nakano shi ）是位于長野縣北部的市。為善光寺平東北部的中心都市。
长野县,饭山市,36.8517,138.3656,飯山市（日语：飯山市／いいやまし Iiyama shi ）是位于長野縣北部的市。為飯山藩的城下町。人口約2万5000人。
长野县,茅野市,35.9956,138.1589,茅野市（日语：茅野市／ちのし Chino shi ）是位于長野縣南信地方的市。其觀光業、工業、農業都較發達。日本標高最高的市公所位于該市。
长野县,盐尻市,66666667,137.95,鹽尻市（日语：塩尻市／しおじりし Shiojiri shi ）是長野縣中信地方的一市。
长野县,千曲市,0.5306959,138.1149,千曲市（日语：千曲市／ちくまし Chikuma shi ）是長野縣北部，北信地方千曲川中游的市。人口約6万4千人。設立于2003年（平成15年）9月1日，由更埴市、更級郡上山田（かみやまだ）町、埴科郡戶倉町三市町合併而成。
长野县,佐久市,36.2489,138.4769,佐久市（日语：佐久市／さくし Saku shi ）是長野縣東部的市。與上田市并為東信地方的中心都市。該市還是日本離海最遠的地方。
长野县,東御市,36.3594,138.3306,東御市（日语：東御市／とうみし Tōmi shi ）是長野縣的市。新市名來自于旧「東部町」的「東」與旧「北御牧村」的「御」兩字。
长野县,安昙野市,36.3028,137.8997,安昙野市（日语：安曇野市／あづみのし Azumino shi ）是位於日本长野县中西部的城市。是名來自合併前的安曇郡（1879年被分割為南安曇郡和北安曇郡），而安曇郡的名稱則是源自日本彌生時代以海上勢力聞名的「安曇族」。[2]
岐阜县,大垣市,35.3594,136.6128,大垣市（日语：大垣市／おおがきし Ōgaki shi ），是日本中部岐阜縣西南方的城市，是目前日本唯一同時有兩個飛地轄區的市町村。柿子的著名产地，昔日寫作「大柿」。奧之細道的終點。戰國時代為齋藤氏的领土，杭瀨川之戰所在地。
岐阜县,高山市,36.1458,137.2522,高山市（日语：高山市／たかやまし Takayama shi ）是日本岐阜縣北部（飛驒地方）的一個市。現在的高山市，是2005年2月1日時舊高山市合并了周邊的9個町村而成的。合并之后，該市成為日本面積最大的市町村（21796705平方公里），甚至超過香川縣和大阪府，相當于整個東京都的面積。該市有「飛驒的小京都」之稱，每年都有很多来自日本國內外的觀光客來此觀光。
岐阜县,多治見市,35.3328,137.1322,"多治見市（日语：多治見市／たじみし Tajimi shi ）為日本岐阜縣南端的市。以美濃燒的產地而知名。由于距離名古屋市距離很近，乘電車從名古屋市中心到該市只需30分鐘，故該市建設了不少住宅區，成為名古屋市的衛星城市之一。平成18年1月，土岐郡笠原町編入該市。面積9124平方公里，總人口114,946人（39,953戶）。"
岐阜县,关市,35.4958,136.9178,關市（日语：関市／せきし Seki shi ）是日本中部岐阜县中部的城市，是锐器的著名产地。「關之孫六」（関の孫六）是關市的日本刀名匠。
岐阜县,中津川市,35.4875,137.5006,中津川市（日语：中津川市／なかつがわし Nakatsugawa shi ）為日本岐阜縣的一個市，位于岐阜縣東南端。接鄰長野縣，自來便和木曾谷（日语：木曽谷）、伊那谷（日语：伊那谷）關係很深，近年則是與中京圈的關係逐漸增強。因行政範圍內有斷層通過，所以山地眾多，而在此流入木曾川的河川雖然規模不大但都是清流，就水質清澈來說在木曾川水系中也是有數的。
岐阜县,美浓市,35.5447,136.9075,美濃市（日语：美濃市／みのし Mino shi ）是日本岐阜縣中濃地域中央位置的城市。以美濃和紙的產地而聞名。平成11年（1999年）5月31日該市中心街道建筑被確定為重要傳統建筑物群保存地區。近年是知名的觀光地。現任市長為石川道政。
岐阜县,瑞浪市,35.3619,137.2544,瑞浪市（日语：瑞浪市／みずなみし Mizunami shi ）是日本岐阜縣東南部的城市。現任市長為水野光二。
岐阜县,羽岛市,66666667,136.7,羽島市（日语：羽島市／はしまし Hashima shi ），是日本中部岐阜县南部的城市。在东方有木曾川，在西面有长良川。城市标高低，曾經遭受到了水灾。1954年城市制度实施。以前是正木村、足近村、小熊村、竹鼻町、上中島村、下中島村、江吉良村、堀津村、福寿村和桑原村。
岐阜县,惠那市,35.4494,137.4128,惠那市（日语：恵那市／えなし Ena shi ）為日本岐阜縣東南部的市。
岐阜县,土岐市,35.3525,137.1833,土岐市（日语：土岐市／ときし Toki shi ）為日本岐阜縣東南部的城市，以陶瓷器產量位居日本第一而聞名。近年來因成為名古屋通勤圈的一部分而得到發展。
岐阜县,各务原市,35.3989,136.8486,各務原市（日语：各務原市／かかみがはらし Kakamigahara shi ）是日本岐阜县南部的城市。在南方有木曾川。江戶时代是中仙道的有车站的镇。田地很少，工厂多。有航空自衛隊的基地，三菱重工業和川崎重工業的飛机工厂。为了纪念那件事情有各务原航空宇宙博物馆。胡萝卜，守口萝卜(非常长的萝卜)的产地。
岐阜县,可兒市,35.4258,137.0611,可兒市（日语：可児市／かにし Kani shi ）為日本岐阜縣的市。位于岐阜縣中南部木曾川的南岸。
岐阜县,山縣市,35.5061,136.7814,"山縣市（日语：山県市／やまがたし Yamagata shi ）為日本岐阜縣的市。是岐阜縣內第一個通過平成大合併而誕生的市。為岐阜縣内少數的幾個沒有鐵路通過的市，最近的車站為岐阜站。面積22204平方公里，總人口30,797人。"
岐阜县,瑞穗市,35.3919,136.6908,瑞穗市（日语：瑞穂市／みずほし Mizuho shi ）是日本岐阜縣西南部的城市。
岐阜县,本巢市,35.4831,136.6786,本巢市（日语：本巣市／もとすし Motosu shi ）為日本岐阜縣西南部的市。东西17km，南北43km，总面积37457km²。
岐阜县,飞驒市,36.2383,137.1861,飛驒市（日语：飛驒市／ひだし Hida shi ，「驒」音tuó）為日本岐阜縣最北端的市。
岐阜县,郡上市,35.7486,136.9644,郡上市（日语：郡上市／ぐじょうし Gujō shi ）為日本岐阜縣中部的市。2004年3月1日成立，由郡上郡7町村合併而誕生。
岐阜县,下吕市,35.8058,137.2442,下呂市（日语：下呂市／げろし Gero shi ）為日本岐阜縣中部的市。成立于2004年3月1日，由益田郡萩原町、小坂町、下呂町、金山町、馬瀨村合併誕生。現任市長為山田良司。
岐阜县,海津市,35.2206,136.6367,海津市（日语：海津市／かいづし Kaizu shi ）為日本岐阜縣西南部的市。位于岐阜县的最南端，西部和东部与三重县相连，东部与爱知县为邻。
静冈县,静冈市,34.9756,138.3825,"静冈市（日语：静岡市／しずおかし Shizuoka shi ）是一座位於日本中部東海地方静冈县中部的城市，也是静冈县縣廳所在地，並在2005年4月1日成为政令指定都市。靜岡市有人口約70万人，是靜岡縣內面積和人口第二大都市（均位列濱松市之後）[2]。靜岡市的轄區面積超過1,411平方公里，是日本面積第五大都市（位於高山市、濱松市、日光市、北見市之後），亦是都道府縣廳所在地中面積最大的城市[3]。靜岡市下設葵區、駿河區、清水區三個區。現在的靜岡市是在2003年4月1日由舊静冈市和清水市兩座都市合併誕生的[4]。舊靜岡市是一座以駿府城為核心的城下町，而清水市則是一座港口都市。兩座城市之間有著鮮明的差異且中間有日本平相隔，使得靜岡市成為一座具有多樣特色的都市。"
静冈县,沼津市,35.0956,138.8636,沼津市（日语：沼津市／ぬまづし Numazu shi ），是位於日本靜岡縣東部的市。於1923年7月1日成立。是静岡縣東部的中心都市。沼津市也是沼津都市圈的中心。觀光業發達。
静冈县,熱海市,35.0961,139.0717,熱海市（日语：熱海市／あたみし Atami shi ）位於日本靜岡縣東部，與神奈川縣接壤，於1937年4月10日設市。此市以溫泉而出名，也是東京圈重要的觀光都市。
静冈县,三岛市,35.1186,138.9186,三島市（日语：三島市／みしまし Mishima shi ）為日本靜岡縣東部伊豆半島北端的都市。市内有著名的三嶋大社。
静冈县,富士宮市,35.2222,138.6214,富士宮市（日语：富士宮市／ふじのみやし Fujinomiya shi ）是靜岡縣東部的市。過去是富士山本宮淺間大社的門前町。
静冈县,伊東市,34.9658,139.1019,伊東市（日语：伊東市／いとうし Itō shi ）是靜岡縣東部的市。位于伊豆半島東海岸，面向相模灘。主要經濟產業為漁業和觀光業。
静冈县,島田市,34.8364,138.1761,島田市（日语：島田市／しまだし Shimada shi ）為靜岡縣中部的市。位于大井川沿岸，過去是志太郡及榛原郡。在過去是東海道島田宿的宿場。
静冈县,富士市,35.1614,138.6764,富士市（日语：富士市／ふじし Fuji shi ）是靜岡縣東部的城市，施行時特例市。人口數居于靜岡縣內第三位。也是富士都市圈（約40万人）的行政、商業、工業中心。日本製紙（舊大昭和製紙）、王子製紙等很多造紙工廠都設立于此，在戰后的經濟高度成長期，很多造紙工廠將廢水傾倒入海中，加上空氣污染，引發嚴重的社會問題。
静冈县,磐田市,34.7178,137.8514,磐田市（日语：磐田市／いわたし Iwata shi ）為日本靜岡縣西部地区的市。過去為磐田郡的一部份。
静冈县,掛川市,34.7686,137.9983,掛川市（日语：掛川市／かけがわし Kakegawa shi ）是東海地方中部、靜岡縣西部地區的城市。為日本最大的綠茶產地。
静冈县,藤枝市,34.8675,138.2578,藤枝市（日语：藤枝市／ふじえだし Fujieda shi ）為靜岡縣中部、位于旧駿河國的市。過去是志太郡。
静冈县,御殿場市,35.3086,138.935,御殿場市（日语：御殿場市／ごてんばし Gotemba shi ）為靜岡縣東部的市，為知名的觀光都市，是前往富士山和箱根觀光交通要點。市區海拔較高，氣候冷涼，降水量多。
静冈县,袋井市,34.7503,137.925,袋井市（日语：袋井市／ふくろいし Fukuroi shi ）為靜岡縣西部中央位置的市。2005年4月1日，該市與磐田郡淺羽町合併。
静冈县,下田市,34.6794,138.9453,下田市（日语：下田市／しもだし Shimoda shi ）為伊豆半島南部的都市。旧為賀茂郡。
静冈县,裾野市,35.1739,138.9067,裾野市（日语：裾野市／すそのし Susono shi ）為靜岡縣東部的市。市名“裾野”在日語中本為普通名詞，意為“山麓的緩坡”。
静冈县,湖西市,34.7186,137.5317,湖西市（日语：湖西市／こさいし Kosai shi ）是日本靜岡縣最西部的市。
静冈县,伊豆市,34.9767,138.9469,伊豆市（日语：伊豆市／いずし Izu shi ）為一位于靜岡縣伊豆半島中央的市，為伊豆半島面積最大的市。市內大多數地區為山地。
静冈县,御前崎市,34.6381,138.1281,御前崎市（日语：御前崎市／おまえざきし Omaezaki shi ）為靜岡縣中西部的城市。主要產業為電力、水產和觀光。市域內建有濱岡核電廠。
静冈县,菊川市,34.7578,138.0842,菊川市（日语：菊川市／きくがわし Kikugawa shi ）為靜岡縣中西部的市。
静冈县,伊豆之國市,35.0278,138.9289,伊豆之國市（日语：伊豆の国市／いずのくにし Izunokuni shi ）為日本靜岡縣伊豆半島北部的市。成立于2005年4月1日，由伊豆長岡町、大仁町、韮山町三町合併而成。現任市長為望月良和。
爱知县,一宫市,35.3039,136.8031,一宮市（日语：一宮市／いちのみやし Ichinomiya shi ）是愛知縣西部（尾張地方）的城市。目前是施行時特例市。現任市長為中野正康。
爱知县,半田市,34.8992,136.9267,半田市（日语：半田市／はんだし Handa shi ），位于日本本州中部的爱知县内，是知多半岛的中心城市。
爱知县,丰川市,34.82678,137.3759,豐川市（日语：豊川市／とよかわし Toyokawa shi ）是日本愛知縣東部東三河的一市。
爱知县,丰田市,35.0833,137.1567,丰田市（日语：豊田市／とよたし Toyota shi ），是日本的爱知县的城市之一。
爱知县,蒲郡市,34.82639,137.2195,蒲郡市（日语：蒲郡市／がまごおりし Gamagōri shi ），是位於愛知縣東南部東三河地域的市。
爱知县,高滨市,34.9333,136.995,高濱市（日语：高浜市／たかはまし Takahama shi ）是愛知縣中部的市。為愛知縣最小的市。
爱知县,三好市 (爱知县),35.0897,137.0744,三好市（日语：みよし市／みよしし Miyoshi shi ）是位於愛知縣西三河地方的市。
爱知县,海部市,35.2006,136.7836,海部市（日语：あま市／あまし Ama shi ）是位於日本愛知縣西部的一個城市。於2010年3月22日由海部郡七寶町、美和町、甚目寺町合併而成。市政府設於合併前的美和町公所所在地。
爱知县,長久手市,35.1842,137.0486,長久手市（日语：長久手市／ながくてし Nagakute shi ）是愛知縣西北部的都市，東與名古屋市相鄰，是名古屋近郊的衛星城市之一。該地是小牧、長久手之戰的古戰場，也是2005年日本國際博覽會的舉辦場地之一。該地人口在2008年5月時首度突破5萬人，因此在2012年1月4日正式施行市制，由原本的愛知郡長久手町升格為長久手市。
三重县,津市 (日本),34.7186,136.5056,津市（日语：津市／つし Tsu shi ）是位於日本三重县中部的城市，也是三重縣的縣廳所在地。
三重县,四日市市,34.9667,136.6167,四日市市（日语：四日市市／よっかいちし Yokkaichi shi ）是位於日本三重县北部的城市，也是三重縣內人口最多的城市，東臨伊勢灣，位于日本四大工业核心地带之一的中京工业核心地带。
三重县,松阪市,34.5781,136.5275,松阪市（日语：棇阪市／まつさかし Matsusaka shi ）是位於日本三重縣中部的城市，是位於日本三重縣中部面向伊勢灣的一個城市，東部位於伊勢平原（日语：伊勢平野），鄰伊勢灣，氣候較為溫暖，以出產松阪牛而聞名。
三重县,桑名市,35.0622,136.6839,桑名市（日语：桑名市／くわなし Kuwana shi ）是位於日本三重縣北部的城市，轄區位於伊勢平原（日语：伊勢平野）的最北端，木曾三川（日语：木曽三川）河口西岸，並與愛知縣和岐阜縣接壤。
三重县,伊賀市,34.7686,136.13,伊賀市（日语：伊賀市／いがし Iga shi ）是位於日本三重縣西北部的城市；轄區位於上野盆地（日语：上野盆地）的北部，東北部為鈴鹿山脈（日语：鈴鹿山脈），西北部為信樂台地，西南部為大和高原，東南部為布引山地（日语：布引山地）。
三重县,铃鹿市,34.8822,136.5842,铃鹿市（日语：鈴鹿市／すずかし Suzuka shi ）是位于日本三重县北部的城市。轄區東臨伊势湾，東半部位於伊勢平原（日语：伊勢平野），西半部則屬於鈴鹿山脈（日语：鈴鹿山脈）的山區。
三重县,龟山市,34.8558,136.4517,龜山市（日语：亀山市／かめやまし Kameyama shi ）是位於日本三重縣北部的都市。
三重县,鸟羽市,34.48133,136.8434,鳥羽市（日语：鳥羽市／とばし Toba shi ）是位於日本三重縣志摩半島東北部的城市。
三重县,員辨市,35.1158,136.5614,員辨市（日语：いなべ市／いなべし Inabe shi ）是位於日本三重縣最北端的城市，同時與岐阜縣和滋賀縣接鄰。
三重县,志摩市,34.3283,136.8306,志摩市（日语：志摩市／しまし Shima shi ）是位於日本三重縣志摩半島南部的城市。
滋贺县,彦根市,35.2744,136.2597,彦根市（日语：彦根市／ひこねし Hikone shi ）是位于日本滋贺县東部的城市，也是琵琶湖东岸的最大城市；轄區大部分區域位於湖東平原上，西側臨琵琶湖，東北側則屬於鈴鹿山脈（日语：鈴鹿山脈）往西延伸初的山區。
滋贺县,近江八幡市,35.1283,136.0981,近江八幡市（日语：近江八幡市／おうみはちまんし Ōmihachiman shi ）是位於日本滋賀縣中部，琵琶湖東岸的城市，以近江商人（日语：近江商人）及安土城而著名。
滋贺县,守山市,35.0589,135.9944,守山市（日语：守山市／もりやまし Moriyama shi ）為位於日本滋賀縣南部的城市；西北側與琵琶湖接臨，轄區主要位於野洲川（日语：野洲川）流入琵琶湖的河口南側。
滋贺县,栗東市,35.0217,135.9981,栗東市（日语：栗東市／りっとうし Rittō shi ）為位於日本滋賀縣西南部的城市，市名「栗東」則是取自位於栗太郡東部之原因。
滋贺县,甲賀市,4.966092,136.1662,甲賀市（日语：甲賀市／こうかし Kōka shi ）為位於日本滋賀縣南部的城市，轄區東側為鈴鹿山脈（日语：鈴鹿山脈），西側為信樂盆地，南部為甲賀丘陵。
滋贺县,野洲市,35.0675,136.0258,野洲市（日语：野洲市／やすし Yasu shi ）是位於日本滋賀縣南部的城市，北側與琵琶湖接臨，轄區主要位於野洲川（日语：野洲川）流入琵琶湖的河口北側。
滋贺县,湖南市,35.0042,136.085,湖南市（日语：湖南市／こなんし Konan shi ）是位於日本滋賀縣南部的城市，轄區南側北側皆為山區，主要市區位於中間自東向西流的野洲川（日语：野洲川）沿岸平原。雖然名為「湖南」，但並未與琵琶湖接鄰。
滋贺县,高岛市,35.3528,136.0356,高島市（日语：高島市／たかしまし Takashima shi ）是位於日本滋賀縣西北部的城市。
滋贺县,東近江市,35.1128,136.2078,東近江市（日语：東近江市／ひがしおうみし Higashiōmi shi ）是位於日本滋賀縣的城市。轄區東部位於鈴鹿山脈（日语：鈴鹿山脈），西半部為湖東平原。
滋贺县,米原市,35.3153,136.2839,米原市（日语：米原市／まいばらし Maibara shi ）是位於日本滋賀縣東北部的城市，轄區位於琵琶湖東岸伊吹山地（日语：伊吹山地）和鈴鹿山脈（日语：鈴鹿山脈）之間的隘口前，因此自古即是重要的交通要道，目前高速公路有名神高速公路和北陸自動車道，鐵路有東海道新幹線、東海道本線、北陸本線在此交會。
京都府,京都市,35.0117,135.7681,"京都市（日语：京都市／きょうとし Kyōto shi  日語發音 帮助·信息）是位於日本京都府南部的城市，為京都府府治，也是政令指定都市之一。京都市的面積為82783平方公里，下轄11個區。2020年，京都市有人口1,465,701人[2]，是日本人口第八多的都市。京都市還和京都府南部、滋贺县西部及大阪府的部份地區共同組成了“京都都市圈”，其人口數約有379萬[3]。京都市也是「京阪神都會區」的一部份[4]。"
京都府,福知山市,35.2967,135.1264,福知山市（日语：福知山市／ふくちやまし Fukuchiyama shi ）為位於近畿地方北部，京都府西北部的行政區劃。是京都府內第三個成立的城市行政區劃，亦是京都府北部的主要都市。
京都府,綾部市,35.2989,135.2586,綾部市（日语：綾部市／あやべし Ayabe shi ）為位於日本京都府北部的城市，為連接舞鶴、若狹、福知山、京都市的交通要道，由良川（日语：由良川）由東向西穿過主要市區。自古即以絲綢紡織業而聞名，北部區域則有被列為文化財產的黑谷和紙（日语：黒谷和紙），日本的新興宗教大本教發源於此。
京都府,宇治市,34.8808,135.7794,宇治市（日语：宇治市／うじし Uji shi ）是位於日本京都盆地東南部，京都市南側的城市，以世界遺產寺廟平等院及宇治抹茶而聞名，也是源氏物語第三部宇治十帖（日语：宇治十帖）的主要故事地點。[3]現為京都府管轄，是其僅次於京都市的人口第二大城市。
京都府,宮津市,35.5356,135.1956,宮津市（日语：宮津市／みやづし Miyazu shi ）是位於日本京都府北部的行政區劃，鄰日本海，日本三景之一的天橋立位于此。
京都府,龟冈市,35.0133,135.5725,龜岡市（日语：亀岡市／かめおかし Kameoka shi ）是位於日本京都府中部的城市，在京都府的人口僅次於京都市及宇治市。轄區位於龜岡盆地及周邊山區，大堰川、保津川（桂川上游）自市區中心通過。
京都府,城陽市,34.8531,135.78,城陽市（日语：城陽市／じょうようし Jōyō shi ）是位於日本京都府南部的行政區劃，轄區東部為丘陵地，西部位於京都盆地，西側有木津川（日语：木津川 (京都府)）通過。「城陽」之名指的是位於山城國南部。
京都府,向日市,34.9486,135.6983,向日市（日语：向日市／むこうし Mukō shi ）是位於日本京都府的行政區劃，地處京都盆地西南側，緊鄰京都市。面積僅772平方公里，為全日本的市級行政區劃中，面積第三小的，僅大於琦玉縣蕨市及東京都狛江市。「向日」之名稱源自境內的向日神社（日语：向日神社）。
京都府,长冈京市,34.9267,135.6956,長岡京市（日语：長岡京市／ながおかきょうし Nagaokakyō shi ）是隸屬日本京都府的行政區劃，位於京都市的西南部；主要市區位於轄內東半部，西部則為山區。名稱源自日本在8世紀曾經設於此地的首都長岡京。
京都府,八幡市,34.8756,135.7078,八幡市（日语：八幡市／やわたし Yawata shi ）是位於京都府南部、緊鄰大阪府的城市，地處木津川（日语：木津川_(京都府)）、淀川、桂川的匯流處南側，過去是石清水八幡宮的門前町，也因此以「八幡」作為城市名稱；在全日本則是繼福岡縣八幡市、愛媛縣八幡濱市、滋賀縣近江八幡市，第四個使用「八幡」做為市名的城市，但除了八幡濱市以外，在另外兩個城市名稱中「八幡」的日文讀音和本市是不同的。
京都府,京田邊市,34.8144,135.7678,京田邊市（日语：京田辺市／きょうたなべし Kyōtanabe shi ）是位於京都府南部的城市，同時與大阪府和奈良縣接鄰，地處三府縣三角地帶的中心，木津川（日语：木津川 (京都府)）由轄區東北側通過，轄區西南側為生駒山地（日语：生駒山地），主要市區位於生駒山地和木津川之間的平原區域。
京都府,京丹後市,35.6242,135.0611,京丹後市（日语：京丹後市／きょうたんごし Kyōtango shi ）是位於日本京都府最北端的一行政區劃，其轄區涵蓋丹後半島西半側，西部沿海地區屬於山陰海岸國立公園，東部沿海屬於丹後天橋立大江山國定公園，內陸部分則多為海拔400公尺至600公尺之間的山區。
京都府,南丹市,35.1072,135.47,南丹市（日语：南丹市／なんたんし Nantanshi ）為位於京都府中部丹波地方的行政區劃，「南丹」指的是此地位於過去丹波國的南部區域。
京都府,木津川市,34.7369,135.8208,木津川市（日语：木津川市／きづがわし Kizugawa shi ）是位於日本京都府南部的行政區劃，為京都府轄下位置最南端的市，南接奈良縣奈良市。在西元740年至744年期間，日本的首都恭仁京曾位於此地。
大阪府,岸和田市,34.46053,135.3709,岸和田市（日语：岸和田市／きしわだし Kishiwada shi ）是位於日本大阪府南部的城市，現為施行時特例市；西部靠大阪灣，沿岸為以填海地為主的工業區，東部區域為和泉山脈（日语：和泉山脈），主要產業為紡織工業，本地的知名代表慶典為岸和田山車祭（日语：岸和田だんじり祭）。
大阪府,泉大津市,34.5044,135.4103,泉大津市（日语：泉大津市／いずみおおつし Izumiōtsu shi ）是位於日本大阪府中南部（泉北地域）的行政區劃，西臨大阪灣，沿海區域屬於堺泉北臨海工業地帶（日语：堺泉北臨海工業地帯），主要以物流業倉庫為主。此外由於過去本地為和泉棉花的集散地，後逐漸發展出纖維相關工業，現本地出要產業為被子。
大阪府,贝冢市,34.4378,135.3586,貝塚市（日语：貝塚市／かいづかし Kaizuka shi ）是位於日本大阪府南部的行政區劃，西臨大阪灣。
大阪府,守口市,34.73578,135.5617,守口市（日语：守口市／もりぐちし Moriguchi shi ）是位於日本大阪府東北部的城市，與大阪市相鄰，因此也是大阪市的通勤城市與衛星城市。曾經在1990年舉辦國際花與綠博覽會的場地－鶴見綠地（日语：花博記念公園鶴見緑地）的西半部就屬於本市的轄區。
大阪府,茨木市,34.8164,135.5686,茨木市（日语：茨木市／いばらきし Ibaraki shi ）是位在大阪府的北部北攝地區的行政區劃，處在大阪市與京都市兩個大都市的中間，為大阪市的衛星城市的特徵，現為施行時特例市。
大阪府,八尾市,34.6269,135.6008,八尾市（日语：八尾市／やおし Yao shi ）位於日本大阪府東部的城市，目前是中核市。
大阪府,泉佐野市,34.4067,135.3275,泉佐野市（日语：泉佐野市／いずみさのし Izumisano shi ）是位於日本大阪府南部的行政區劃，關西國際機場位於其海岸外的人工島，該人工島的北部及與本土相連的聯絡道路皆屬於泉佐野市的轄區。
大阪府,富田林市,34.4992,135.5972,富田林市（日语：富田林市／とんだばやしし Tondabayashi shi ）是位于日本大阪府東南部石川（日语：石川_(大阪府)）沿岸區域的城市。轄內南部為丘陵地，西部與大阪狹山市交界處則有金剛新市鎮（日语：金剛ニュータウン）。
大阪府,寢屋川市,34.7661,135.6281,寢屋川市（日语：寝屋川市／ねやがわし Neyagawa shi ）是位於日本大阪府東北部淀川左岸的城市，屬于大阪府北河内地區，距離大阪市市中心約15公里。現為中核市。
大阪府,河內長野市,34.4583,135.5642,河内長野市（日语：河内長野市／かわちながのし Kawachinagano shi ）是位於日本大阪府東南部的城市。轄區南部為和泉山脈（日语：和泉山脈），與奈良縣和和歌山縣相鄰，此區域也被稱為奧河內（日语：奥河内），擁有多個具有歷史的觀光景點，此區域也已被劃入金剛生駒紀泉國定公園。
大阪府,松原市 (日本),34.5781,135.5517,松原市（日语：松原市／まつばらし Matsubara shi ）是位於日本大阪府中部大阪市和堺市之間，大和川南側的城市。由於緊鄰兩個大城市，也發展成這兩個城市的卧城
大阪府,大東市,34.7119,135.6233,大東市（日语：大東市／だいとうし Daitō shi ）是位于日本大阪府東部的城市，轄區大部分皆為近畿平原，寢屋川（日语：寝屋川）自北側進入轄區，通過市區後轉往西進入大阪市；轄區東側為生駒山地（日语：生駒山地）北端的飯盛山（日语：飯盛山 (生駒山地)）。
大阪府,和泉市,34.4836,135.4236,和泉市（日语：和泉市／いずみし Izumi shi ）是位于大阪府南部（泉北（日语：泉北）地區）的行政區劃。轄區北部為平原，中部為丘陵，南部為和泉山脈（日语：和泉山脈）；主要市區位於北部的平原區域。
大阪府,箕面市,34.8269,135.4706,箕面市（日语：箕面市／みのおし Minoh shi ）是位于日本大阪府北部的城市。轄區中部及北部為山區，占了全市面積的三分之二，僅南部為平原，主要市區也位於此。
大阪府,柏原市,34.5792,135.6286,柏原市（日语：柏原市／かしわらし Kashiwara shi ）是位於日本大阪府東部的城市，主要市區位於轄區西部大和川和石川（日语：石川 (大阪府)）匯流處附近的平原區域，東部約三分之二區域為包括生駒山地（日语：生駒山地）和金剛山地（日语：金剛山地）的山區。由於主要市區距離大阪市市區約20公里，因此也發展成大阪市的臥城。
大阪府,羽曳野市,34.5578,135.6061,羽曳野市（日语：羽曳野市／はびきのし Habikino shi ）是位於大阪府東南部的城市。轄區中間為羽曳野丘陵，東側為山區，石川（日语：石川 (大阪府)）由南往北自中間區域穿過，主要農產為葡萄。
大阪府,门真市,34.7333,135.5833,門真市（日语：門真市／かどまし Kadoma shi ）是位於日本大阪府大阪市東北側的城市，屬於大阪市周邊的通勤城市。
大阪府,攝津市,34.7772,135.5622,攝津市（日语：摂津市／せっつし Settsu shi ）是位於日本大阪府北部，淀川右岸的城市，距離大阪市市區僅約12公里。
大阪府,高石市,34.5206,135.4422,高石市（日语：高石市／たかいしし Takaishi shi ）是位於大阪府中南部的行政區劃，西臨大阪灣，北側為堺市；轄內多為平原，為大阪府轄下面積第二小的市級行政區劃，僅大於藤井寺市。
大阪府,藤井寺市,34.5747,135.5975,藤井寺市（日语：藤井寺市／ふじいでらし Fujiidera shi ）是日本大阪府東部的城市，位於近畿平原東南部，大和川和石川（日语：石川_(大阪府)）的匯流處；面積在全日本的城市中是第五小，僅大於琦玉縣蕨市、東京都狛江市、京都府向日市、東京都國立市。
大阪府,東大阪市,34.6794,135.6008,東大阪市（日语：東大阪市／ひがしおおさかし Higashiōsaka shi ）是位於日本大阪府東部的城市，其人口規模位居大阪府第三，僅次于府內兩個政令指定都市大阪市和堺市，目前是中核市。現有提案與周邊的八尾市和柏原市進行市町村合併並升格為大阪府的第三個政令指定都市的構想，但此提案目前並未有任何的進展。
大阪府,泉南市,34.3658,135.2736,泉南市（日语：泉南市／せんなんし Sennan shi ）是位於日本大阪府西南部的城市，西北側臨大阪灣，東南側為和泉山脈（日语：和泉山脈）；由於關西國際機場人工島位於其西北側外海，因此該人工島的西南側約三分之一的區域被劃為本市的轄區，此部分區域多為機場的貨運、空廚、地勤業者的管制作業區域。
大阪府,交野市,34.7881,135.68,交野市（日语：交野市／かたのし Katano shi ）是位於日本大阪府東北部的城市，轄區的東南部為山區，天野川（日语：天野川 (大阪府)）自東南部山區下北流過，主要市區位於北部靠近枚方市一側。
大阪府,大阪狹山市,34.5036,135.5556,大阪狹山市（日语：大阪狭山市／おおさかさやまし Ōsakasayama shi ）是位於日本大阪府東南部的城市，為大阪市和堺市的臥城，在轄內南部為自1960年代開始開發的狹山新市鎮（日语：狭山ニュータウン）。
大阪府,阪南市,34.3594,135.2397,阪南市（日语：阪南市／はんなんし Hannan shi ）是位於大阪府西南部的城市，為大阪府轄下最南端的城市，距離大阪市中心約45公里，但距離相鄰的和歌山市區僅10公里。
兵库县,神户市,34.6913,135.183,"神户市（日语：神戸市／こうべし Kōbe shi ）是位於日本兵庫縣東南部的都市，為兵庫縣首府，也是政令指定都市之一，下轄有9個區（日语：行政区）。全市面積55702平方公里，人口則有1,522,273人（至2020年1月），是日本人口第七多的都市。其與大阪市、京都市並為京阪神都會區的核心都市[3]，同時也和附近的衛星都市組成神戶都市圈[4]。"
兵库县,明石市,34.6431,134.9975,明石市（日语：明石市／あかしし Akashi shi ）是位於日本兵庫縣南部瀕臨明石海峡的城市，現為中核市。
兵库县,洲本市,34.3422,134.8944,洲本市（日语：洲本市／すもとし Sumoto shi ）是位於日本淡路島中部的城市，行政區劃屬於兵庫縣，北接淡路市，南與南淡路市接壤，東以紀淡海峽與和歌山縣和歌山市隔海相對。
兵库县,芦屋市,34.7278,135.3033,芦屋市（日语：芦屋市／あしやし Ashiya shi ）是位於日本兵庫縣東南部的城市，位處西宮市與神戶市之間，孕育出阪神間現代主義。
兵库县,伊丹市,34.7867,135.4056,伊丹市（日语：伊丹市／いたみし Itami shi ）是位於日本兵庫縣東南部的城市，屬於大阪市的衛星城市，距離大阪市市中心僅約10公里距離。轄內東側有豬名川（日语：猪名川）、西側武庫川（日语：武庫川）通過，全市大部分區域皆平坦；JR西日本的福知山線以南北芳巷通過市區，阪急伊丹線也從南面通往市中心。
兵库县,相生市,34.8036,134.4681,相生市（日语：相生市／あいおいし Aioi shi ）是位於日本兵庫縣西南部的一個城市。
兵库县,加古川市,34.7569,134.8414,加古川市（日语：加古川市／かこがわし Kakogawa shi ）是位於日本兵庫縣南部的城市，現為施行時特例市；是東播磨地方的主要城市；此地氣候溫暖，降雨較少，冬天雖有降雪但極為稀少。加古川（日语：加古川）自北往南貫穿轄區，主要市區位於轄區南側加古川河口左岸的加古川町、平岡町、別府町一帶。
兵库县,龙野市,34.8581,134.5456,龍野市（日语：たつの市／たつのし Tatsuno shi ）是位于日本兵庫縣西南部的城市。轄區北側為山區，南側臨瀨戶內海，揖保川（日语：揖保川）自北往南貫穿轄區。
兵库县,赤穗市,﻿34.755,134.3903,赤穗市（日语：赤穂市／あこうし Akō shi ）是位於日本兵庫縣西南角的城市，西與岡山縣接壤。
兵库县,西胁市,34.9933,134.9694,西脇市（日语：西脇市／にしわきし Nishiwaki shi ）是位于日本兵庫縣中部的城市，以18世紀發展出的播州織（日语：播州織）而聞名。
兵库县,三木市,34.7967,134.99,三木市（日语：三木市／みきし Miki shi ）是日本兵庫縣的城市，位於神戶市的西北方；由於日本香川縣也有叫做「三木」的行政區劃三木町，因此在表示地名時會加上舊國名「播磨三木」作為區分。
兵库县,高砂市,34.7658,134.7906,高砂市（日语：高砂市／たかさごし Takasago shi ）是位於日本兵庫縣南部，臨播磨灘的城市，加古川（日语：加古川）由轄區東南側流過，主要市區位於加古川河口西側的平原，北部區域則是山地，臨海區域則是工業區。
兵库县,小野市,34.8531,134.9317,小野市（日语：小野市／おのし Ono shi ）是位于日本兵庫縣中南部的城市。算盤為本市特有的傳統工藝產品，稱為「播州算盤（日语：播州そろばん）」，為日本算盤的主要產地。
兵库县,三田市,34.8894,135.2253,三田市（日语：三田市／さんだし Sanda shi ）是位於日本兵庫縣東南部，六甲山地（日语：六甲山地）北側的城市；是知名的擁有豐富自然景觀的田園都市，1980年代起，由於JR福知山線完成複線鐵路的建設，提高了交通的運量，帶動本地成為大阪、神戶地區的衛星城市，並規劃北攝三田新市鎮（日语：北摂三田ニュータウン）興建大量的住宅區，在1987年至1996年的連續10年間曾是全日本人口成長率第一的行政區劃。[2]
兵库县,加西市,34.9278,134.8419,加西市（日语：加西市／かさいし Kasai shi ）是位於日本兵庫縣中央區域的城市，亦屬於姬路市的衛星城市。
兵库县,丹波篠山市,35.0758,135.2192,丹波篠山市（日语：丹波篠山市／たんばささやまし Tambasasayama shi ）是位於日本兵庫縣東部的城市。轄區東西寬30公里，南北長20公里，主要市區位於篠山盆地內，四周有20763平方公里的區域為山林，擁有豐富的自然環境。特產為被稱為「丹波黑」的黑大豆（日语：黒豆）。
兵库县,养父市,35.4047,134.7675,養父市（日语：養父市／やぶし Yabu shi ）是位于日本兵庫縣北部但馬地域的城市。
兵库县,丹波市,35.1772,135.0358,丹波市（日语：丹波市／たんばし Tanba shi ）是位於日本兵庫縣東部的城市。
兵库县,南淡路市,34.2958,134.7792,南淡路市（日语：南あわじ市／みなみあわじし Minamiawaji shi ）是位於日本兵庫縣南部淡路島上最南端的城市，東為紀伊水道，西臨播磨灘，南側以鳴門海峽與德島縣相隔，其人口與面積都是淡路島最大。
兵库县,朝來市,﻿35.325,134.85,朝來市（日语：朝来市／あさごし Asago shi ）是位于日本兵庫縣北部但馬地域的城市，轄區位於中國山地內，因此多為山區地形，主要市區集中在圓山川（日语：円山川）及市川（日语：市川 (兵庫県)）沿岸山谷中。
兵库县,宍粟市,35.0058,134.5486,宍粟市（日语：宍粟市／しそうし Shisō shi ）是位於日本兵庫縣西部的城市，為兵庫縣內面積第二大的行政區劃，僅次於豐岡市。轄內多數區域為山區，
兵库县,加東市,34.9175,134.9736,加東市（日语：加東市／かとうし Katō shi ）是位于日本兵庫縣中部的城市。轄區北部及東北部屬於中國山地，南部為丘陵地，西部為加古川（日语：加古川）的沖積平原。
奈良县,大和高田市,﻿34.515,135.7364,大和高田市（日语：大和高田市／やまとたかだし Yamatotakada shi ）是位於日本奈良縣西部的城市，也是葛城（日语：葛城）地區的主要城市，轄區位於奈良盆地西南部，大多為平原地形。現為奈良縣內人口密度最高的城市，近年人口開始減少，並開始往周邊町村外流，但日間人口依然維持不減。
奈良县,大和郡山市,34.6494,135.7828,大和郡山市（日语：大和郡山市／やまとこおりやまし Yamatokōriyama shi ）是位於日本奈良縣西北部的城市。
奈良县,天理市,34.5967,135.8375,天理市（日语：天理市／てんりし Tenri shi ）為位於日本奈良縣北部的城市。以宗教都市聞名，其市名源自於天理教，是日本唯一以宗教團體名稱命名的城市，由於天理教的本部即設於天理市的市區中，在市區中有大量天理教相關的設施。市區外的地區以農業為主，特產為草莓。
奈良县,橿原市,34.5092,135.7925,橿原市（日语：橿原市／かしはらし Kashihara shi ）是位於日本奈良縣中部的城市。人口數達12萬，為奈良縣內人口第二多的城市。
奈良县,櫻井市,34.5189,135.8519,櫻井市（日语：桜井市／さくらいし Sakurai shi ）是位於日本奈良縣中部、中和（日语：中和_(奈良県)）地區的城市。
奈良县,五條市,34.3528,135.6989,五條市（日语：五條市／ごじょうし Gojō shi ）是位於日本奈良縣西南部的城市，也是南和（日语：南和）地區的主要城市。
奈良县,御所市,34.4633,135.7403,御所市（日语：御所市／ごせし Gose shi ）是位於日本奈良縣西部的城市，目前是奈良縣內人口最少的城市。
奈良县,生駒市,34.6919,135.7006,生駒市（日语：生駒市／いこまし Ikoma shi ）是位于奈良縣西北部的行政區劃。西側為生駒山地（日语：生駒山地），穿過此片山區即為大阪府；東側以矢田丘陵（日语：矢田丘陵）與奈良市相鄰，市區即位於這兩座山區之間的狹長平地區域。
奈良县,香芝市,34.5414,135.6992,香芝市（日语：香芝市／かしばし Kashiba shi ）是位于奈良縣西部的城市，轄區位於奈良盆地西側二上山（日语：二上山 (奈良県・大阪府)）東側的沖積平原；西側與大阪府接鄰，由於可透過近畿日本鐵道大阪線和西名阪自動車道進入大阪市市區，轄內開發了大量的住宅區，在西部有香芝旭丘新市鎮（日语：香芝旭ヶ丘ニュータウン），東部有真美丘新市鎮（日语：真美ヶ丘ニュータウン）。
奈良县,葛城市,34.4892,135.7267,葛城市（日语：葛城市／かつらぎし Katsuragi shi）是位於日本奈良縣西部的城市，西側與大阪府接壤。
奈良县,宇陀市,34.5278,135.9525,宇陀市（日语：宇陀市／うだし Uda shi ）是位於日本奈良縣東北部的城市。轄區位於大和高原南端，南側為山區，山區多為山林地，主要市區位於屬於淀川支流的宇陀川（日语：宇陀川）和芳野川沿岸的平地；與奈良盆地相比，夏季稍涼，冬季寒冷，雨量相對較多。
和歌山县,海南市,34.1556,135.2092,海南市（日语：海南市／かいなんし Kainan shi ）是位於和歌山縣西北部沿海地區的城市，轄區北部為丘陵地，南部為長峰山脈和藤白山脈的山區。
和歌山县,御坊市,33.8914,135.1525,御坊市（日语：御坊市／ごぼうし Gobō shi ）是位於和歌山縣中部臨海的城市，為和歌山縣紀日高地區的主要城市。
和歌山县,有田市,34.0831,135.1278,有田市（日语：有田市／ありだし Arida shi ）是位於日本和歌山縣北部臨海的城市。
和歌山县,纪之川市,34.2697,135.3625,紀之川市（日语：紀の川市／きのかわし Kinokawa shi ）是位于日本和歌山縣北部的城市。
和歌山县,岩出市,34.2564,135.3111,岩出市（日语：岩出市／いわでし Iwade shi ）是位於日本和歌山縣北部的城市。
鸟取县,鸟取市,35.5011,134.235,鳥取市（日语：鳥取市／とっとりし Tottori shi ）是日本鳥取縣東部（因幡地方）的一個城市，同時是鳥取縣的縣廳所在地，現為中核市。鳥取市是日本各縣廳所在地中僅多於甲府市的人口第二少城市，人口密度也僅高於山口市。
鸟取县,米子市,35.4281,133.3311,米子市（日语：米子市／よなごし Yonago shi ）是位於日本鳥取縣西部的市，與島根縣安來市接壤，為山陰地方的主要都市之一。米子市是山陰地方人口最多的都市圈米子都市圈（日语：米子都市圏）的中心都市，並和鄰近的松江（日语：松江都市圏）、出雲（日语：出雲都市圏）、安來等都市圈形成了中海、宍道湖经济圈（日语：中海・宍道湖経済圏）。自江戶時代初期以來，米子市就作為商業都市得到發展，有「山陰的大阪」之稱:87。由於米子地處山陰兩縣的中央，因此許多企業和政府將其統籌山陰兩縣的分公司設在米子市或同樣地處兩縣中間的松江市。因此米子市雖非縣廳所在地，但卻擁有鳥取大學醫學院及其附屬醫院（日语：鳥取大学医学部附属病院）、山陰放送等重要機構，是山陰地方的據點都市之一。在交通方面，米子市是JR山陰本線和境線、伯備線的分歧點，JR西日本米子支社（日语：西日本旅客鉄道米子支社）位於此地。公路方面有山陰自動車道和米子自動車道經過，使得自米子前往岡山、鳥取、境港、松江等地都十分便利，加上自米子機場和其鄰近的境港有開往韓國和俄羅斯的航路，使得米子成為山陰地方首屈一指的交通樞紐。
鸟取县,境港市,35.5397,133.2317,境港市（日语：境港市／さかいみなとし Sakaiminato shi ）是位於日本中國地方鳥取縣西部的城市，也是日本在日本海沿岸最大的漁業城市，在1992年至1996年期間曾是全日本魚獲量最高的港口。
岛根县,松江市,35.4681,133.0486,松江市（日语：松江市／まつえし Matsue shi ）是一個位於日本島根縣東部（出雲地方）宍道湖沿岸的城市，也是島根縣廳的所在地。松江市區的中心部分位於連接宍道湖和中海的大橋川（日语：大橋川）兩側。北岸的市區被稱為橋北，開發歷史較早。南岸的橋南則是新市區。兩者之間有四座大橋相連。由於松江市本就地處水岸，並且松江城的護城河系統大多得到保存，使得松江市有「水都（日语：水の都）」之稱。加上市區的眾多傳統建築和靠近出雲大社的地理位置，令松江市成為山陰地方的觀光熱點。松江市也是山陰人口最多的城市，和鳥取縣的米子市共同構成中海、宍道湖經濟圈（日语：中海・宍道湖経済圏）的主要區域[4]。松江市在2012年成為特例市，2018年升格為中核市[5]。
岛根县,滨田市,34.8992,132.08,濱田市（日语：浜田市／はまだし Hamada shi ）是位於島根縣西部，面向日本海的一個市。過去曾為石見國的中心，現在是島根縣西部的主要都市。與益田市、大田市并稱為石見三田。
岛根县,出雲市,35.3681,132.755,出雲市（日语：出雲市／いずもし Izumo shi ）是位於日本島根縣的城市，以「神話之國 出雲」而聞名。轄區主要位於出雲平原（日语：出雲平野）上，北側為島根半島，臨日本海，南側為中國山地，人口數在島根縣內的為第二多、在整個山陰地方中僅次於松江市及鳥取市排行第三。
岛根县,益田市,﻿34.675,131.8428,益田市（日语：益田市／ますだし Masuda shi ）是位於日本島根縣西部的市，與濱田市同為島根縣西部的主要都市。與濱田市、大田市并稱為石見三田。
岛根县,大田市,35.1922,132.4997,大田市（日语：大田市／おおだし Ōda shi ）是位於島根縣的面向日本海的市，與濱田市、益田市共稱為石見三田（いわみさんだ），是石見東部地區的主要城市。位於松江、出雲都市圈與濱田、益田都市圈中間，距縣都松江市約70公里，距中國地方主要城市廣島市約130公里。
岛根县,安來市,35.4317,133.2508,安来市（日语：安来市／やすぎし Yasugi shi ）是位於島根縣東部的市，與鳥取縣相鄰。
岛根县,江津市,35.0114,132.2211,江津市（日语：江津市／ごうつし Gōtsu shi ）是位於島根縣中部的市，為島根縣內面積最小，也是人口最少的的市。
岛根县,云南市,35.2878,132.9006,雲南市（日语：雲南市／うんなんし Unnan shi ）是位於島根縣東部的市。于2004年11月1日由6個町村合併而成，是島根縣內唯一一個不臨海的市（若將安來市所鄰的中海視為海域）。由於位於過去出雲國的南部，因此命名為「雲南」。
冈山县,倉敷市,﻿34.585,133.7719,倉敷市（日语：倉敷市／くらしきし Kurashiki shi ）屬日本岡山縣，位於高梁川與瀨戶內海的交界。成立於1928年4月1日。轄區內的工業製品製造品年出貨量達4兆日圓以上，在西日本地區為次於大阪市的主要工業城市。
冈山县,津山市,35.0694,134.0044,津山市（日语：津山市／つやまし Tsuyama shi ）是位於岡山縣北部的城市，為岡山縣第三大城，也是美作地方的中心都市。
冈山县,玉野市,34.4919,133.9458,玉野市（日语：玉野市／たまのし Tamano shi ）是位於岡山縣南端、瀨戶内海沿岸的城市。為一港灣都市，也是過去從海路前往四國的交通要道。
冈山县,笠冈市,34.5072,133.5072,笠岡市（日语：笠岡市／かさおかし Kasaoka shi ）是位於日本岡山縣西南端的城市，轄區包含笠岡群島等31個島嶼，為井笠地方的主要城市，但因為與廣島縣福山市相鄰，也屬於福山都市圏的一部分，兩地在義務教育、消防工作和圖書館設備等多項公共事務上都有相互支援，也因為與福山市的地緣關係，過去曾有部分地區希望可以併入福山市，但因為牽涉到跨縣的合併，最終受到強烈反彈而無疾而終。
冈山县,井原市,34.5978,133.4639,井原市（日语：井原市／いばらし Ibara shi ）是位於岡山縣西南部的城市以「中國地方的搖籃曲」（中国地方の子守唄）發源地而聞名。
冈山县,總社市,34.6728,133.7467,總社市（日语：総社市／そうじゃし Sōja shi ）是位於岡山縣中央部的城市。轄區西部和北部位於吉備高原，南部則是丘陵地形，主要市區位於中央高梁川週邊的盆地。
冈山县,高梁市,34.79103,133.6168,高梁市（日语：高梁市／たかはしし Takahashi shi ）是位於岡山縣西部的城市，與廣島縣接壤。大半轄區位於吉備高原，和相鄰的總社市一樣完全位於過去的備中國範圍內。
冈山县,新見市,34.9772,133.4703,新見市（日语：新見市／にいみし Niimi shi ）是位於岡山縣西北部新見盆地及周邊地區的城市。農業發達，冬天是滑雪勝地。
冈山县,備前市,﻿34.745,134.1881,備前市（日语：備前市／びぜんし Bizen shi ）是位於岡山縣東南部瀨戶內海沿岸的城市，東部與兵庫縣相鄰。以備前燒聞名。
冈山县,瀨戶內市,﻿34.665,134.0928,瀨戶内市（日语：瀬戸内市／せとうちし Setouchi shi ）是位於岡山縣東南部岡山平原的城市，鄰近岡山市。轄區內多屬海拔100公尺到300公尺之間的山林地，東南部面向瀨戶內海。
冈山县,赤磐市,34.7553,134.0189,赤磐市（日语：赤磐市／あかいわし Akaiwa shi ）是位於岡山縣中南的城市，位於岡山平原的東北部，轄區內大半地區為丘陵地，鄰岡山市，因此也是岡山市的通勤城市。
冈山县,真庭市,35.0756,133.7525,真庭市（日语：真庭市／まにわし Maniwa shi ）是位於岡山縣北中部的城市，與鳥取縣接壤，為岡山縣內面積最大的行政區。轄區南部位於吉備高原，北部位於中國山地。
冈山县,美作市,35.0086,134.1486,美作市（日语：美作市／みまさかし Mimasaka shi ）是位於岡山縣東北部的城市，與兵庫縣和鳥取縣接壤。轄區內的後山為岡山縣最高峰。
冈山县,淺口市,34.5278,133.585,淺口市（日语：浅口市／あさくちし Asakuchi shi ）是位於岡山縣西南部倉敷市和笠岡市之間的城市。
广岛县,广岛市,34.3853,132.4553,廣島市（日语：広島市／ひろしまし Hiroshima shi ）位於日本廣島縣西部的都市，為廣島縣首府，也是本州西部的最大都市，人口約119萬。原本只是太田川入海口的一個三角洲，自16世紀時毛利氏在此建城並作為政權根據地後，迅速發展成為中國與瀨戶內地方的中心都市，現今為中國地方僅有的兩個政令指定都市之一。因其重要的政治经济军事地位，二战期间遭受了核彈轟炸的军事攻击。
广岛县,尾道市,34.4089,133.205,尾道市（日语：尾道市／おのみちし Onomichi shi ）是位於日本廣島縣東南部的市，位處岡山市與廣島市之中間，也因此成為這兩大都市的「緩衝地帶」。市區瀕臨瀨戶內海的尾道水道（日语：尾道水道），因此自古就是海運的物流集散地；明治時代山陽鐵道開通後，成為鐵路運輸與海運的轉運點，因此躍升為廣島縣東部的最大城市。1999年5月西瀨戶自動車道通車後，更可直接連結四國，加上2015年全線開通的中國橫斷自動車道尾道松江線，將成為「瀨戶內的十字路口」。
广岛县,吳市,34.2492,132.5658,吳市（日语：呉市／くれし Kure shi ）是位於日本廣島縣西南部的都市，臨瀨戶內海，自古以來即為海軍重鎮。人口約23萬人，是廣島縣內僅次於廣島市和福山市的第三大城市。已於2016年升格為中核市。
广岛县,福山市,34.4858,133.3625,福山市（日语：福山市／ふくやまし Fukuyama shi ）是日本廣島縣的中核市，位于廣島縣東南部（備後地方），是福山都市圈的中心城市。人口規模居于廣島縣內第二位，中國地方第四位（次于廣島市、岡山市和倉敷市）。
广岛县,三原市,34.3975,133.0786,三原市（日语：三原市／みはらし Mihara shi ）是為廣島縣南部的市，為備後都市圈的中心都市于2005年由豐田郡本鄉町、御調郡久井町、賀茂郡大和町合併而成。
广岛县,府中市 (廣島縣),34.5683,133.2364,府中市（日语：府中市／ふちゅうし Fuchū shi ）是位於日本廣島縣東南部一個內陸城市，屬於備後都市圈的一部份。
广岛县,三次市,34.8058,132.8517,三次市（日语：三次市／みよしし Miyoshi shi ）為廣島縣北部的主要城市，屬於備北地區。
广岛县,庄原市,34.8578,133.0167,庄原市（日语：庄原市／しょうばらし Shōbara shi ）為位於日本中國地方中部、廣島縣東北部的行政區劃，面積占了全廣島縣的14%，為廣島縣內面積最大的行政區劃[4]，在全日本的行政區劃中則排名第14[5]，也是近畿地區以西面積最大的。[3]
广岛县,大竹市,34.2381,132.2222,大竹市（日语：大竹市／おおたけし Ōtake shi ）為位於廣島縣西南部的市，與山口縣的岩國市、和木町相鄰，且屬共同的生活圈；在沿海地區有石化工業、造紙、化學纖維等產業的工廠，成為瀨戶內工業地域的一部份。
广岛县,竹原市,34.3417,132.9069,竹原市（日语：竹原市／たけはらし Takehara shi ）是位于廣島縣南部沿海的市。
广岛县,廿日市市,34.3486,132.3317,廿日市市（日语：廿日市市／はつかいちし Hatsukaichi shi ）為位於廣島縣西部的市，轄區北部是中國山地，此地所輸出的木材運往位於轄區南部沿海的港口，使此地成為西日本主要的木材港，也帶動週邊與木材相關的營建、修繕、家具等產業。
广岛县,安藝高田市,34.6664,132.7039,"安藝高田市（日语：安芸高田市／あきたかたし Akitakata shi ）為位於日本中國地方中部、廣島縣北部的市，轄區位於中國山地內。于2004年3月1日由高田郡吉田町、八千代町、美土里町、高宮町、甲田町、向原町合併而成，當時總人口約有35,000人。"
广岛县,江田島市,34.2228,132.4442,江田島市（日语：江田島市／えたじまし Etajima shi ）為位於廣島縣西南部海域上的城市，以位於轄區內的海軍兵學校和海軍基地而聞名；轄區以江田島、西能美島、東能美島地區為主，旁邊的無人島大黑神島也屬於本市轄區。
山口县,宇部市,33.9517,131.2467,宇部市（日语：宇部市／うべし Ube shi ）是位於日本山口縣西部的城市，臨瀨戶内海周防灘，人口主要集中於厚東川下游兩側平原及沿海地區，人口數約17萬人，人口數為山口縣內次於下關市、山口市的第三大城。以該市為中心與周邊地區組成了人口有26萬人的宇部城市圈，同時也屬於關門都市圈的一部分。
山口县,山口市,34.1781,131.4739,山口市（日语：山口市／やまぐちし Yamaguchi shi ）是位於日本山口縣中部的城市，亦是山口縣的縣廳所在地；面積為山口縣內最大，南臨瀨戶內海，北接島根縣，主要市區位於南部，全市人口數為山口縣內第二多，次於下關市。
山口县,萩市,34.4078,131.3989,萩市（日语：萩市／はぎし Hagi shi ）是位於日本山口縣北部的城市，鄰日本海，屬於山陰地方；由於基礎交通發展較慢，與山陽地方相比發展較為落後；但因為在17世紀至19世紀期間曾是毛利氏治理的長州藩的主要據點，也由於長州藩的在日本近代歷史上扮演關鍵角色的因素，這些歷史遺跡都成為了觀光景點，現本地產業主要也依靠觀光業。
山口县,下松市,﻿34.015,131.8703,下松市（日语：下松市／くだまつし Kudamatsu shi ）是位於山口縣東南部的一個市。
山口县,岩國市,34.1669,132.2197,岩國市（日语：岩国市／いわくにし Iwakuni shi ）是位於日本中國地方山口縣最東端的城市，以小瀨川（日语：小瀬川）為界與廣島縣相接。
山口县,山陽小野田市,34.0033,131.1819,山陽小野田市（日语：山陽小野田市／さんようおのだし San'yōonoda shi ）是位於山口縣西南部的市。於2005年3月22日，由小野田市與厚狭郡山陽町合併而成，城市名稱直接取合併前兩行政區的名字相連而成。同時屬於宇部都市圈和關門都市圈的一部份。
山口县,光市,33.9617,131.9422,光市（日语：光市／ひかりし Hikari shi ）是位於日本山口縣東南部的一個市。
山口县,周南市,34.0553,131.8061,"周南市（日语：周南市／しゅうなんし Shūnan shi ）是山口縣東部的市。總人口約152,000人。是山口縣内第人口第4多的都市。"
山口县,长门市,34.3711,131.1822,長門市（日语：長門市／ながとし Nagato shi ）是位於日本山口縣北部臨靠日本海的城市，為山陰地方的最西端，也因為JR美禰線在此與山陰本線交會，成為山口县北部的主要交通要所。
山口县,柳井市,33.9639,132.1017,柳井市（日语：柳井市／やないし Yanai shi ）是山口縣東南部室津半島東岸的市，轄區內半數以上地區為丘陵地，主要市區集中在海岸附近的平地上。
山口县,美祢市,34.1667,131.2058,美禰市（日语：美祢市／みねし Mine shi ）是位於日本山口縣中部山區內的城市，轄區全都位於中國山地中，是山口縣內唯一沒有靠海的行政區劃。
德岛县,鸣门市,34.1667,134.6167,鳴門市（日语：鳴門市／なるとし Naruto shi ）是位於四國東部德島縣東北端的城市，轄區主要位於讚岐山脈最東端，包含了延伸至海中的大毛島、高島、島田島等島嶼，也因此轄區內大多數地區為山區。山脈繼續沿著島嶼往東延伸即為因渦流而聞名的鳴門海峽，海峽上的大鳴門橋在此把四國和淡路島接連起來，再藉由連結淡路島和本州的明石海峽大橋即可直接前往關西地區，使得鳴門成了四國地區前往關西的門戶。
德岛县,小松島市,34.0047,134.5906,小松島市（日语：小松島市／こまつしまし Komatsushima shi ）是為於德島縣東部沿海的城市，位於那賀川和勝浦川兩出海口之間，臨紀伊水道。以阿波狸合戰的故事地點聞名。
德岛县,阿南市,33.9167,134.6667,阿南市（日语：阿南市／あなんし Annan shi ）是位于德島縣東南部的市，為四国最東端的市町村級行政區劃，也是德島縣南部地區的行政中心。
德岛县,吉野川市,34.0664,134.3586,吉野川市（日语：吉野川市／よしのがわし Yoshinogawa shi ）是位於德島縣北部的城市，位於吉野川南岸。為德島縣內第五個成立的城市。
德岛县,美马市,34.0533,134.17,美馬市（日语：美馬市／みまし Mima shi ）是位於德島縣西北部的城市。
德岛县,阿波市,88888889,134.2383,阿波市（日语：阿波市／あわし Awa shi ）是位於德島縣北部的城市，位於吉野川北岸。為德島縣內第七個成立的城市，人口數在德島縣內排名第六，次于小松島市。
德岛县,三好市 (德岛县),34.02603,133.8071,三好市（日语：三好市／みよしし Miyoshi shi ）是位於德島縣西部的行政區劃，同時與四國地區的另外三縣香川縣、愛媛縣、高知縣接鄰，佔全德島縣面積的六分之一，也是四國地區面積最大的市町村級行政區劃，但由於位於山區，轄內近90%的土地為山地[2]，實際上可居住地區的面積僅有13%，主要市區位於轄區北部吉野川沿岸。
香川县,丸龟市,34.2894,133.7978,丸龜市（日语：丸亀市／まるがめし Marugame shi ）是位於日本香川縣中西部的城市，亦為香川縣人口第二多的城市，僅次於高松市。該市團扇的產量占了全日本的九成。
香川县,坂出市,34.3164,133.8606,坂出市（日语：坂出市／さかいでし Sakaide shi ）是位於日本香川縣中央的城市，為瀨戶大橋四國側的入口。
香川县,善通寺市,34.2283,133.7872,善通寺市（日语：善通寺市／ぜんつうじし Zentsūji shi ）是位於日本香川縣西北部的一市。
香川县,观音寺市,34.1283,133.6628,觀音寺市（日语：観音寺市／かんおんじし Kan'onji shi ）是位于日本香川縣最西側的一座城市，西臨瀨戶內海，南側以讚岐山脈與德島縣相鄰。
香川县,赞岐市,34.3253,134.1722,讚岐市（日语：さぬき市／さぬきし Sanuki shi ）是位於日本香川縣東部的城市，市中心距香川縣縣廳所在地高松市市中心約15公里。東側為東香川市，西側為高松市和三木町、南側以讚岐山地與德島縣美馬市相接臨。
香川县,東香川市,34.2439,134.3589,東香川市（日语：東かがわ市／ひがしかがわし Higashikagawa shi ）是位於日本香川縣東部的城市。
香川县,三丰市,34.1475,133.6958,三豐市（日语：三豊市／みとよし Mitoyo shi ）是位於日本香川縣西讚地方的城市。以紫雲出山及浦島太郎傳說而聞名。在香川縣內為人口第三多的城市，次于高松市和丸龜市。
爱媛县,今治市,34.0661,132.9978,今治市（日语：今治市／いまばりし Imabari shi ）是位于愛媛縣東北部高繩半島的城市，臨瀨戶內海，其人口在愛媛縣內僅次于松山市位居第二，在全四國地區中為第五大城，次於四個縣的縣政府所在地。
爱媛县,宇和島市,33.2233,132.5606,宇和島市（日语：宇和島市／うわじまし Uwajima shi ）是位於日本四國地方西部，愛媛縣西南部（南予地方）的城市，也是南予地方的主要城市。
爱媛县,八幡濱市,33.4631,132.4233,八幡濱市（日语：八幡浜市／やわたはまし Yawatahama shi ）是位於愛媛縣西部佐田岬半島根部的城市，因為天然的良港八幡濱港，也因此具有四國規模最大的魚市場。八幡濱港同時也是四國往返九州的重要港口。
爱媛县,西条市,33.91956,133.1811,西條市（日语：西条市／さいじょうし Saijō shi ）為位於愛媛縣東予地方的城市。沿海地區與鄰近的四國中央市、新居濱市、今治市、松山市共同連成中四國地區最大規模的工業區，產業包括材料、半導体、造船、飲料、發電、鋼鐵等，工業產值為全四國地區最大。
爱媛县,大洲市,33.5064,132.5447,大洲市（日语：大洲市／おおずし Ōzu shi ）是位於愛媛縣南予地方的城市，位於肱川流域，是個以過去的大洲城為中心發展的城下町，有「伊予的小京都」之稱。
爱媛县,伊予市,33.7575,132.7039,伊予市（日语：伊予市／いよし Iyo shi ）是位於愛媛縣中予地方的城市。
爱媛县,四國中央市,33.9808,133.5492,四國中央市（日语：四国中央市／しこくちゅうおうし Shikokuchūō shi ）是位于愛媛縣東端的城市，與四國其他3縣均有接壤，連結四國四縣的四條主要高速公路（松山自動車道、高知自動車道、高松自動車道、德島自動車道）在此交會，因此從本地前往四縣的縣政府所在地都非常方便（高知市60公里、高松市70公里、松山市80公里、德島市100公里），在交通上相當是整個四國的中心地區 ，因此在2004年合併設市時，以「四國中央」作為合併後的城市名稱。
爱媛县,西予市,33.3631,132.5111,西予市（日语：西予市／せいよし Seiyo shi ）是位於日本愛媛縣西南部的一個市級行政區。
爱媛县,東溫市,33.79103,132.8722,東溫市（日语：東温市／とうおんし Tōon shi ）是位於愛媛縣中部的城市。
高知县,宿毛市,32.9389,132.7261,宿毛市（日语：宿毛市／すくもし Sukumo shi ）是位於高知縣西南部與愛媛縣接壤的城市。主要市區位於宿毛灣旁，轄區還包括沖之島。
高知县,土佐清水市,32.7814,132.955,土佐清水市（日语：土佐清水市／とさしみずし Tosashimizu shi ）是位於高知縣西南端的城市。由於交通不便，無鐵路和高速道路，為高知縣内11市中，人口減少且老齡化最嚴重的城市。主要產業遠洋漁業受過疎化、高齢化影響也陷入衰退。
高知县,安藝市,33.5025,133.9072,安藝市（日语：安芸市／あきし Aki shi ）是位於高知縣東部的市，距離高知市約40公里，以林業和園藝業為主要產業，茄子的產量為日本第一。三菱集團的前身三菱財閥的創立者岩崎弥太郎出身于該市。
高知县,须崎市,33.4008,133.2831,須崎市（日语：須崎市／すさきし Susaki shi ）是位於高知縣中部臨太平洋的城市。轄區內多為喀斯特地形，並延伸至海岸線，因此具有許多複雜的海灣地形。也因此石灰及水泥成為轄內主要產業。
高知县,土佐市,33.4961,133.4253,土佐市（日语：土佐市／とさし Tosa shi ）是位于高知縣中部的城市，位於四國地區三大河川之一的仁淀川河口。為高知縣内11市中面積最小的市。主要產業為農業和漁業，特產為土佐文旦。
高知县,南國市,33.5756,133.6414,南國市（日语：南国市／なんこくし Nankoku shi ）是位於高知縣中部的城市，與高知市接壤，為高知縣人口第二多的城市，也是全日本各縣的人口第二多城市中最少的一個。由於位於高知平原上，轄內設有高知机场，並有鐵路和公路通過，為高知縣陸空交通的樞紐。
高知县,四萬十市,32.9917,132.9339,四萬十市（日语：四万十市／しまんとし Shimanto shi ）是位於高知縣西南部的主要城市，轄區大多為山林地，市中心位於四萬十川下游的沖積平原－中村平原，也因為四萬十川的緣故，命名為「四萬十市」。
高知县,香南市,33.5642,133.7006,香南市（日语：香南市／こうなんし Kōnan shi ）是位於高知縣東部的城市。
高知县,香美市,33.6039,133.6861,香美市（日语：香美市／かみし Kami shi ）為位於高知縣高知平原東部的城市。轄區內約九成地區為山林地。
福冈县,福冈市,33.5903,130.4019,福冈市（日语：福岡市／ふくおかし Fukuoka shi ）是位於日本九州北部、福岡縣西部的都市，為福岡縣首府，同時為政令指定都市之一。全市人口約158萬，是九州最大都市與政治、經濟、交通中心，也是大阪以西人口最多的城市。以福岡市為中心的福岡都市圈聚集了眾多政府機關和企業分公司，是日本人口第四多的都市圈，並和北九州都市圈共同構成了北九州－福岡都市圈。
福冈县,大牟田市,33.0303,130.4461,大牟田市（日语：大牟田市／おおむたし Ōmuta shi ）是位于福岡縣最南端的一個城市，為福岡縣內人口第五多的城市，與相鄰的三山市、熊本縣荒尾市、南關町、長洲町同屬共同的生活圈，特別是與南側屬熊本縣的荒尾市往來密切，兩市的市區也是直接接鄰，因此過去也曾出現了跨縣市合併的意見。
福冈县,直方市,33.7439,130.7297,直方市（日语：直方市／のおがたし Nōgata shi ）是位于福岡縣北部的一個城市，屬於筑豐地方；因為與北九州市相鄰，距離小倉地區僅30公里，也成為北九州都市圈的一部份。
福冈县,饭冢市,33.6458,130.6914,飯塚市（日语：飯塚市／いいづかし Iizuka shi ）是位于日本福冈县中部的一座城市，為福岡縣內第四大城市，次於福岡市、北九州市、久留米市，也是筑豐地區的主要城市。
福冈县,田川市,33.6389,130.8061,田川市（日语：田川市／たがわし Tagawa shi ）是位于福岡縣筑豐地區的第三大城市，是北九州都市圈的一部分，也是田川地区的主要都市，昔為煤礦都市。
福冈县,柳川市,33.1631,130.4061,柳川市（日语：柳川市／やながわし Yanagawa shi ）是位於日本福岡縣南部的一個城市；由於市區內有許多運河穿越，又被稱為水都。特產為有名海的海苔為主。此外也是日本童謠作家與詩人北原白秋的家鄉。
福冈县,嘉麻市,33.5633,130.7117,嘉麻市（日语：嘉麻市／かまし Kama shi ）是位於日本福岡縣中部的一個城市。於2006年3月27日由山田市、稻築町、碓井町及嘉穗町合併而成。「嘉麻」之名源自於1896年之前此地所屬的嘉麻郡。
福冈县,朝倉市,33.4233,130.6656,朝倉市（日语：朝倉市／あさくらし Asakura shi ）是位于日本福岡縣中南部的一個城市，於于2006年3月20日由甘木市、朝倉郡朝倉町、杷木町合併而成。
福冈县,八女市,33.2119,130.5578,八女市（日语：八女市／やめし Yame shi ）是位于福岡縣西南部的城市，屬筑後經濟圈。
福冈县,筑后市,33.2122,130.5022,筑後市（日语：筑後市／ちくごし Chikugo shi ）是位于福岡縣南部筑後平原上的一個城市。
福冈县,大川市,33.2067,130.3839,大川市（日语：大川市／おおかわし Ōkawa shi ）是位於日本福岡縣西南部的一個城市，與佐賀市鄰接，以生產家具為名。該市成立於1954年。
福冈县,行桥市,33.7286,130.9831,行橋市（日语：行橋市／ゆくはしし Yukuhashi shi ）是位于日本福岡縣東部的一個城市。
福冈县,丰前市,33.6117,131.1303,豐前市（日语：豊前市／ぶぜんし Buzen shi ）是位于日本福岡縣東部的一個城市，是目前福岡縣內人口最少的城市；與大分縣中津市為共同之生活圈，因此也有與其進行跨縣合併之建議。
福冈县,中间市,22222222,130.7089,中間市（日语：中間市／なかまし Nakama shi ）是位于福岡縣北部的一市。過去曾因開採煤礦而繁榮，但在煤礦停止開採之後開始沒落，現逐漸轉型為北九州都會區的通勤城鎮。
福冈县,小郡市,33.3964,130.5556,小郡市（日语：小郡市／おごおりし Ogōri shi ）是位于日本福岡縣南部的一個城市，屬於福岡都市圈的一部份。
福冈县,筑紫野市,33.4964,130.5156,筑紫野市（日语：筑紫野市／ちくしのし Chikushino shi ）是位於福岡縣的一個城市，位於福岡市久留米市中間，屬於福岡市都會區的一部份，為福岡市的通勤城市。
福冈县,春日市,33.5328,130.4703,春日市（日语：春日市／かすがし Kasuga shi ）是日本福岡縣中央的一個城市，與福岡市接壤，屬福岡都市圈的一部分，距離福岡市中心僅10公里，因此也成為福岡市的通勤城市。
福冈县,大野城市,33.5364,130.4789,大野城市（日语：大野城市／おおのじょうし Ōnojō shi ）是位于福岡縣福岡市東南方的一個城市，是福岡都市圈的住宅城市之一。
福冈县,宗像市,33.8056,130.5406,宗像市（日语：宗像市／むなかたし Munakata shi ）是位于福岡縣北部的一個城市，位於北九州市與福岡市中間，同時屬於福岡都市圈與北九州都市圈。轄區接鄰響灘與玄界灘，並包含大島與沖之島。
福冈县,太宰府市,33.5128,130.5239,太宰府市（日语：太宰府市／だざいふし Dazaifushi ）是位於日本福岡縣中部的城市，位於福岡市東南方約16公里。它是九州古城大宰府的所在地，擁有許多歷史遺跡，包括著名觀光景點太宰府天滿宮，因此每年有大量旅客到訪，2006年的統計約有732萬名旅客到訪。
福冈县,絲島市,33.5572,130.1958,絲島市[註 1]（日语：糸島市／いとしまし Itoshima shi ）是一座位於福岡縣西部、於2010年1月1日由前原市、志摩町、二丈町合併而成的城市。
福冈县,福津市,33.7669,130.4911,福津市（日语：福津市／ふくつし Fukutsu shi ）是位于福岡縣西北部，福岡市與北九州市中間的一市。于2005年1月24日由福間町與津屋崎町合併而成。
福冈县,浮羽市,33.3472,130.755,浮羽市（日语：うきは市／うきはし Ukiha shi ）是位于福岡縣東南部的一個城市，於2005年3月20日由浮羽郡吉井町、浮羽町合併而成。
福冈县,宮若市,33.7236,130.6667,宮若市（日语：宮若市／みやわかし Miyawaka shi ）是位于福岡縣北部的一個城市，於2006年2月11日由鞍手郡宮田町與若宮町合併而成。
福冈县,三山市,33.1525,130.4747,三山市（日语：みやま市／みやまし Miyama shi ）是位于福岡縣南部的一個城市。於2007年1月29日由旧山門郡瀨高町、山川町、三池郡高田町合併而成。
福冈县,那珂川市,33.4994,130.4222,那珂川市（日语：那珂川市／なかがわし Nakagawa shi ）是位于福岡市南側的一個行政區劃，屬於福岡都市圈的一部分。名稱源自發源於轄區南部山區，自南向北貫穿整個轄區的那珂川（日语：那珂川_(九州)）。[3]
佐贺县,鸟栖市,33.3778,130.5061,鳥栖市（日语：鳥栖市／とすし Tosu shi ）是位于日本九州佐賀縣東部的城市，位於筑紫平野上，是九州主要的交通中心，鳥栖車站是鹿兒島本線與長崎本線的分岐點，轄區內的鳥栖系統交流道則是九州自動車道、長崎自動車道、大分自動車道的交會點。
佐贺县,伊萬里市,33.2647,129.8808,伊万里市（日语：伊万里市／いまりし Imari shi ）是位于日本佐賀縣的城市，以伊万里燒（有田燒）而聞名。
佐贺县,武雄市,33.1939,130.0192,武雄市（日语：武雄市／たけおし Takeo shi ）為位於日本佐賀縣西部的城市，以位於市區的武雄溫泉聞名。
佐贺县,鹿岛市,33.1042,130.0986,鹿島市（日语：鹿島市／かしまし Kashima shi ）是位於日本佐賀縣南部的城市。東側面向有明海，南側為多良山系，主要市區則位於北部海岸。
佐贺县,多久市,33.2886,130.1103,多久市（日语：多久市／たくし Taku shi ）是位于日本佐賀縣中央位置的城市，主要市區位於牛津川沿岸的盆地；於1954年5月1日由小城郡轄下各名字皆有「多久」兩字的町村（北多久町、多久村、東多久村、西多久村、南多久村）合併而成。
佐贺县,小城市 (日本),33.2506,130.2017,小城市（日语：小城市／おぎし Ogi shi ）是位于日本佐賀縣中央地區的城市。於2005年3月1日由小城郡轄下的蘆刈町、牛津町、小城町、三日月町合併而成。因羊羹的消費量為全日本第一而聞名。
佐贺县,嬉野市,33.1278,130.06,嬉野市（日语：嬉野市／うれしのし Ureshino shi ）為位於日本佐賀縣西部的城市，以嬉野温泉而聞名。於2006年1月1日由藤津郡鹽田町與嬉野町合併而成，為佐賀縣內第九個成立的市。
佐贺县,神埼市,33.3108,130.3731,神埼市（日语：神埼市／かんざきし Kanzaki shi ）是位于日本佐賀縣東部的城市。於2006年3月20日由神埼郡神埼町、千代田町、脊振村合併而成，此次合并也造成佐賀縣內的村全部消失。
长崎县,島原市,32.7756,130.3381,島原市（日语：島原市／しまばらし Shimabara shi ）為日本長崎縣東南部島原半島上的城市，為島原半島的主要都市。
长崎县,谏早市,32.8442,130.0536,諫早市（日语：諫早市／いさはやし Isahaya shi ）是位於日本長崎縣中央的城市，人口為縣內僅次長崎市和佐世保市之第三大城市，也是九州的第十二大城市。近年來該市面臨市街地空洞化的危機。
长崎县,平戶市,33.3681,129.5539,平戶市（日语：平戸市／ひらどし Hirado shi ）是位于日本長崎縣西北部的城市，轄區主要位於平戶島，有部分轄區位於九州島北松浦半島的西北端，也因此成為在日本本土上最西端的城市。
长崎县,松浦市,33.3411,129.7092,松浦市（日语：松浦市／まつうらし Matsuura shi ）是位於日本長崎縣北部北松浦半島的城市，北部面向伊萬里灣。以戰國時代的武士組織松浦黨的起源地而聞名。
长崎县,壹岐市,33.7489,129.6939,壹岐市（日语：壱岐市／いきし Iki shi ）是一個隸屬日本長崎縣的城市，轄區包含壹岐島全島。
长崎县,對馬市,34.2028,129.2875,對馬市（日语：対馬市／つしまし Tsushima shi ）是隸屬日本長崎縣的城市，轄區為對馬島及附近島嶼，是日本最接近韓國的行政區劃，轄區內擁有陸海空三個自衛隊的基地。
长崎县,五島市,32.6956,128.8408,五島市（日语：五島市／ごとうし Godō shi ）是隸屬日本長崎縣，位於東中國海上五島群島西南部的城市。五島市成立于2004年8月1日，由福江市、南松浦郡富江町、玉之浦町、三井樂町、岐宿町、奈留町合併而成。
长崎县,西海市,32.9331,129.6431,西海市（日语：西海市／さいかいし Saikai shi ）是位于日本長崎縣西彼杵半島北部的城市。於2005年4月1日由西彼杵郡北部的西彼町、大瀨戶町、西海町、大島町、崎戶町合併而成。
长崎县,云仙市,﻿32.835,130.1875,雲仙市（日语：雲仙市／うんぜんし Unzen shi ）是位于日本長崎縣島原半島東南部的城市，於2005年10月11日由南高來郡國見町、瑞穗町、吾妻町、愛野町、千千石町、小濱町、南串山町合併而成。
长崎县,南島原市,32.6597,130.2978,南島原市（日语：南島原市／みなみしまばらし Minamishimabara shi ）是位於日本長崎縣島原半島南部的城市，於2006年3月31日由南高來郡加津佐町、口之津町、南有馬町、北有馬町、西有家町、有家町、布津町及深江町合併而成。
熊本县,熊本市,32.8031,130.7078,熊本市（日语：熊本市／くまもとし Kumamoto shi ）位於日本九州中部，為九州第三大城市，是熊本縣的縣廳所在地，也是縣內的最大城市，人口73萬餘。市內街道整齊，樓廈林立，富有現代感，日本三名城之一的熊本城正位於此。
熊本县,八代市,32.5178,130.6181,八代市（日语：八代市／やつしろし Yatsushiro shi ）為日本熊本縣南部的主要城市，也是熊本縣內人口第二多的城市，過去曾經是疊蓆的原料藺草的主要產地。
熊本县,荒尾市,32.9867,130.4333,荒尾市（日语：荒尾市／あらおし Arao shi ）為位於日本熊本縣北部的城市。北部與福岡縣大牟田市相鄰，屬於大牟田都市圈，市區也與大牟田市的市區接連在一起，也因此有與大牟田市進行跨縣合併的提案。
熊本县,玉名市,32.9281,130.5597,玉名市（日语：玉名市／たまなし Tamana shi ）是一個位於日本熊本縣北部的城市。在2005年10月3日由舊玉名市與相鄰的岱明町、橫島町、天水町合併而成。
熊本县,天草市,32.4586,130.1931,天草市（日语：天草市／あまくさし Amakusa shi ）為位於日本熊本縣天草群島的一個城市，為熊本縣內人口數僅次于熊本市和八代市的人口第三多城市。於2006年3月27日由本渡市、牛深市和天草郡有明町、御所浦町、倉岳町、栖本町、新和町、五和町、天草町及河浦町合併而成。
熊本县,山鹿市,33.0167,130.6914,山鹿市（日语：山鹿市／やまがし Yamaga shi ）是日本熊本縣北部的一個城市。以山鹿燈籠祭聞名。轄區北部和東北部位於九州山地中，並與福岡縣和大分縣相接，主要市區位於南部的平原。
熊本县,菊池市,32.97944,130.8132,菊池市（日语：菊池市／きくちし Kikuchi shi ）是位于日本熊本縣北部的城市。於2005年3月22日由舊菊池市與菊池郡七城町、泗水町、旭志村合併而成。所出產的菊池米具有一定的知名度。
熊本县,宇土市,32.6875,130.6583,宇土市（日语：宇土市／うとし Uto shi ）是位于日本熊本縣中部宇土半島北側的一個城市，西北側臨有明海，其中御輿來海岸被列為日本海岸百選之一。
熊本县,上天草市,32.5875,130.4306,上天草市（日语：上天草市／かみあまくさし Kamiamakusa shi ）為日本熊本縣天草群島東部的一個城市，位於聯繫有明海與八代海的通道上，也是天草群島前往九州的樞紐；主要島嶼包括大矢野島、上島、樋島、維和島。
熊本县,宇城市,32.64778,130.6842,宇城市（日语：宇城市／うきし Uki shi ）是位于日本熊本縣中部宇土半島西側、南側及內陸部分的城市，於2005年1月15日由宇土郡三角町、不知火町及下益城郡松橋町、小川町、豐野町合併而成。
熊本县,阿苏市,32.9522,131.1214,阿蘇市（日语：阿蘇市／あそし Aso shi ）為位於日本熊本縣東北部阿蘇地區中央的城市，主要市區位於阿蘇火山所形成的破火山口盆地的北部，於2005年2月11日由阿蘇郡的阿蘇町、一之宮町、波野村合併而成。
熊本县,合志市,32.8858,130.7897,合志市（日语：合志市／こうしし Kōshi shi ）是位于日本熊本縣北部的城市，於2006年2月27日由菊池郡合志町與西合志町合併而成。
大分县,大分市,33.2333,131.6067,大分市（日语：大分市／おおいたし Ōita shi ）是位於日本九州東部的主要城市，也是大分縣的縣廳所在地。在過去曾是豐後國的國府所在地，故有府內的別稱。目前是中核市。是九州僅次於福岡市、北九州市、熊本市、鹿兒島市的第五大城市。
大分县,別府市,33.2847,131.4911,別府市（日语：別府市／べっぷし Beppu shi ）是位於日本大分縣中部的一個城市，是大分縣的第二大都市。鄰接城市有大分市、宇佐市、由布市及日出町，當中與大分縣縣廳所在地大分市只有一山之隔，搭乘鐵路只需15分鐘的時間。
大分县,中津市,33.5983,131.1883,中津市（日语：中津市／なかつし Nakatsu shi ）是位于日本九州大分縣西北端的一個城市。是大分縣北部的主要城市，也是大分縣內第三大城市；為大分縣內的觀光都市之一，主要景點包括：中津城、福澤諭吉故宅、耶馬溪。
大分县,日田市,33.3211,130.9414,日田市（日语：日田市／ひたし Hita shi ）是位于日本大分縣西北部的一個城市，雖然隸屬大分縣，但因為地形的關係，與福岡縣的筑前地方和筑後地方往來較為頻繁。
大分县,佐伯市,32.9603,131.8994,佐伯市（日语：佐伯市／さいきし Saiki shi ）是位于日本大分縣東南部的一個城市，為九州裡面積最大的市町村級行政區劃。
大分县,臼杵市,33.1258,131.8047,臼杵市（日语：臼杵市／うすきし Usuki shi ）是位于日本大分縣東部的一個城市，與大分市位於相同的生活圈。
大分县,津久見市,33.0725,131.8611,津久見市（日语：津久見市／つくみし Tsukumi shi ）是位于日本大分縣東海岸津久見灣週邊的一個城市，轄區分布於長目半島南側以及四浦半島的北側。豐後水道上的保戶島、地無垢島、沖無垢島與都屬於津久見市的轄區。
大分县,竹田市,32.9736,131.3978,竹田市（日语：竹田市／たけたし Taketa shi ）是位于日本大分縣西南部的一個城市，與熊本縣和宮崎縣相鄰。
大分县,丰后高田市,33.5572,131.4447,豐後高田市（日语：豊後高田市／ぶんごたかだし Bungotakada shi ）是位于日本大分縣北部國東半島上的一個城市，接鄰周防灘，生活圈屬於中津都市圈。
大分县,杵築市,33.4169,131.6161,杵築市（日语：杵築市／きつきし Kitsuki shi ）是位于日本大分縣東北部國東半島的一個城市，與大分市隔著別府灣相對。由於與鄰近的速見郡日出町和別府市有共同的歷史文化淵源，因此常被合稱為「別杵速見」或「別速杵地區」。
大分县,宇佐市,33.5319,131.3494,宇佐市（日语：宇佐市／うさし Usa shi ）是位于日本大分縣北部的一個城市。
大分县,丰后大野市,32.9781,131.585,豐後大野市（日语：豊後大野市／ぶんごおおのし Bungoōno shi ）是位于日本大分縣南部的一個城市，於2005年3月31日，由大野郡下的5町2村（三重町、清川村、緒方町、朝地町、大野町、千歲村、犬飼町）合併而成。
大分县,國東市,33.5653,131.7317,國東市（日语：国東市／くにさきし Kunisaki shi ）是位于日本大分縣東北部國東半島東部的一個城市，於2006年3月31日，由東國東郡国見町、國東町、武藏町及安岐町合併而成。
宫崎县,都城市,31.7197,131.0617,都城市（日语：都城市／みやこのじょうし Miyakonojō shi ）是位于日本宮崎縣西南端的城市，是宮崎縣內人口第二多的城市。於2006年1月1日，由舊山之口町、高城町、山田町、高崎町與舊都城市合併而成。
宫崎县,延岡市,32.5822,131.665,延岡市（日语：延岡市／のべおかし Nobeoka shi ）是位于日本宮崎縣北部的城市，人口約13萬人，為宮崎縣內人口數量第三多的城市（次于宮崎市和都城市），也是宮崎縣北部的主要城市。
宫崎县,日南市,31.6019,131.3789,日南市（日语：日南市／にちなんし Nichinan shi ）是位于日本宮崎縣南部的城市。有九州的小京都之稱。
宫崎县,小林市,31.9967,130.9728,小林市（日语：小林市／こばやしし Kobayashi shi ）是位于日本宮崎縣西南部小林盆地內的城市，與 熊本縣和鹿兒島縣接壤。
宫崎县,日向市,32.4228,131.6239,日向市（日语：日向市／ひゅうがし Hyūga shi ）是位于日本宮崎縣東北部的城市。
宫崎县,串间市,31.4645,131.2283,串間市（日语：串間市／くしまし Kushima shi ）是位于日本宮崎縣最南端的城市。東側面日向灘，南側為志布志灣，沿岸地區多為日南海岸國定公園的範圍。
宫崎县,西都市,32.1086,131.4014,西都市（日语：西都市／さいとし Saito shi ）是位于日本宮崎縣中央的城市，以日本最大的古墳群西都原古墳群（日语：西都原古墳群）而聞名。是全日本青椒產量最多的地方。
宫崎县,虾野市,32.0456,130.8111,蝦野市（日语：えびの市／えびのし Ebino shi ）是位于日本宮崎縣西南部的城市，與熊本縣和鹿兒島縣接壤，以被列入霧島屋久國立公園範圍的蝦野高原而聞名。
鹿儿岛县,鹿儿岛市,31.5967,130.5572,鹿儿岛市（日语：鹿児島市／かごしまし Kagoshima shi ）是位于日本九州岛南端的一个城市，是鹿儿岛县的縣廳所在地，也是鹿儿岛县的政治、经济、文化中心，人口數佔了全鹿兒島縣的35%，同時也是九州地方人口是第四多的城市，次於福岡市、北九州市、熊本市。鹿兒島市亦是全國人口第三多的中核市，次於千葉縣船橋市及埼玉縣川口市。
鹿儿岛县,鹿屋市,31.3783,130.8522,鹿屋市（日语：鹿屋市／かのやし Kanoya shi ）是位于日本九州大隅半島中央的城市，是大隅半島的行政、經濟、產業的中心，隸屬鹿兒島縣。人口約有10万人，在鹿兒島縣為人口第三多的城市，次於鹿兒島市和霧島市。
鹿儿岛县,奄美市,28.3772,129.4939,奄美市（日语：奄美市／あまみし Amami shi ，琉球語：奄美／アマミ Amami）是日本鹿兒島縣轄下的一個城市，位於奄美群島的奄美大島中部及北部地區，距離鹿兒島市約383公里。前身是名瀨市；在2006年3月20日，名瀨市與住用村和笠利町合併為新設置的奄美市。
鹿儿岛县,枕崎市,31.2728,130.2969,枕崎市（日语：枕崎市／まくらざきし Makurazaki shi ）是位于日本九州薩摩半島南部的一個城市，面向東海，屬於鹿兒島縣。
鹿儿岛县,阿久根市,32.0144,130.1928,阿久根市（日语：阿久根市／あくねし Akune shi ）是位于日本鹿兒島縣西北部的城市。
鹿儿岛县,出水市,32.0906,130.3528,出水市（日语：出水市／いずみし Izumi shi ）是位于日本鹿兒島縣西北部的城市，以鶴的棲息地聞名。
鹿儿岛县,伊佐市,32.0572,130.6131,伊佐市（日语：伊佐市／いさし Isa shi ）是位於日本鹿兒島縣北部的一個城市，於2008年11月1日由大口市與伊佐郡菱刈町合併而成。
鹿儿岛县,指宿市,31.2528,130.6331,指宿市（日语：指宿市／いぶすきし Ibusuki shi ）是位於日本鹿兒島縣薩摩半島南端的城市，是知名的觀光城市，以指宿温泉而聞名。最有名的為當地的熱砂溫泉。當地亦是江戶幕府末期，第十三代將軍德川家定的正室，天璋院篤姬的老家，「今和泉島津家」的所在地。因其氣候溫暖，自稱為「日本的夏威夷」。為了節約冷氣，每年5月下旬，市長都會發表「Aloha 宣言」，宣佈市政府及銀行以夏威夷裇作為正式的服裝。
鹿儿岛县,雾岛市,31.7411,130.7631,霧島市（日语：霧島市／きりしまし Kirishima shi ）是日本鹿兒島縣轄下的一個城市，位於鹿兒島灣的北側。成立于2005年11月7日，由舊國分市與姶良郡溝邊町、橫川町、牧園町、霧島町、隼人町、福山町合併而成，現為鹿兒島縣內人口規模第二的城市。
鹿儿岛县,西之表市,30.7325,130.9975,西之表市（日语：西之表市／にしのおもてし Nishinoomote shi ）是日本鹿兒島縣南部，位於大隅群島種子島北部的城市，位於鹿兒島市南方115公里；西臨東海，東臨太平洋，北為大隅海峡，南與中種子町相鄰，面积占种子岛的45%。位於種子島西方12公里的馬毛島也屬於本市的轄區。過去是日本最南端的士族種子島氏的城下町。
鹿儿岛县,垂水市,31.4928,130.7011,垂水市（日语：垂水市／たるみずし Tarumizu shi ）是位于日本鹿兒島縣轄下的一個城市，位於大隅半島的西北部，面向鹿兒島灣並與櫻島相接。人口逐年減少，目前人口有過少化的傾向。
鹿儿岛县,萨摩川内市,31.8133,130.3042,薩摩川內市（日语：薩摩川内市／さつませんだいし Satsumasendai shi [[:ja:薩摩川内市|]]）是位于日本鹿兒島縣西北部的城市，轄區包含川內平原以及位於西方40公里海面上的甑島群島。成立于2004年10月12日，由川內市、樋脇町、入來町、東鄉町、祁答院町、里村、上甑村、下甑村、鹿島村）合併而成。現為鹿兒島縣内面積最大的城市，也是北薩地區的中心都市。
鹿儿岛县,日置市,31.6336,130.4022,日置市（日语：日置市／ひおきし Hioki shi ）是一個位於日本鹿兒島縣西部的城市，成立於2005年5月1日，由原日置郡的伊集院町、東市來町、日吉町和吹上町合併而成。
鹿儿岛县,曾於市,31.6536,131.0192,曾於市（日语：曽於市／そおし Soo shi ）是位于日本鹿兒島縣東部城市，成立于2005年7月1日，由舊曾於郡的末吉町、財部町、大隅町合併而成。由於與接鄰的宮崎縣的都城市往來方便，因而被列入都城都市圈的範圍。
鹿儿岛县,市來串木野市,31.7147,130.2719,市來串木野市（日语：いちき串木野市／いちきくしきのし Ichikikushikino shi ）是位於日本鹿兒島縣的城市，成立于2005年10月11日，由舊串木野市與日置郡市來町合併而成。城市的日文名稱「いちき串木野」共有六個字，與茨城縣霞浦市（かすみがうら）、筑波未來市（つくばみらい）同為全日本名稱字數最多的城市。
鹿儿岛县,南薩摩市,31.4167,130.3233,南薩摩市（日语：南さつま市／みなみさつまし Minamisatsuma shi ）是日本鹿兒島縣轄下的城市，位於薩摩半島西岸。成立于2005年11月7日，由舊加世田市與川邊郡大浦町、坊津町、笠沙町、日置郡金峰町合併而成。位於附近的宇治群島與草垣群島兩個無人居住的群島也屬於本市轄區。
鹿儿岛县,志布志市,31.4953,131.0456,志布志市（日语：志布志市／しぶしし Shibushi shi ）是位於日本鹿兒島縣東部的城市，緊鄰志布志灣，成立于2006年1月1日，由曾於郡松山町、志布志町、有明町（日语：有明町 (鹿児島県)）合併而成。
鹿儿岛县,姶良市,31.7283,130.6278,姶良市（日语：姶良市／あいらし Aira shi ）是位於日本鹿兒島縣中部的一個城市，於2010年3月23日由姶良郡蒲生町、姶良町、加治木町合併而成。
冲绳县,那霸市,26.2122,127.6789,那霸市（日语：那覇市／なはし Naha shi ，琉球語：那覇／ナーファ ‧ ナファ[2] Naahwa ‧ Nahwa ）位于冲绳本岛南部西海岸，是沖繩縣縣廳所在地和琉球列島人口最多城市。那霸市是沖繩縣的政治、經濟、文化中心，並且擁有國際機場那霸機場和連接沖繩縣外及附近離島的那霸港，是沖繩縣的玄關。那霸市是日本都道府縣廳所在地城市中面積最小的城市，也是日本首都圈和近畿圈之外人口密度最高的地區。那霸機場佔那霸市轄區面積的8%以上，再加上駐日美軍設施（日语：那覇港湾施設）和那霸港的民用設施的話，實際可用於都市活動的面積更小。加上那霸機場的存在使得那霸部分地區對建築限高，無法修建摩天大樓[3]。但最近那霸市開始在不受航空管制的那霸新都心等北部地區和再開發中的牧志、安里地區等舊市區興建摩天大樓。隨著城市化的進展，那霸附近自治體正成為那霸的睡城。2010年，以那霸市為中心的那霸都市圈（日语：那覇都市圏）人口約有83萬人[4]。同樣以那霸市為中心的沖繩本島中南部都市圈的人口則有超過112萬人，佔沖繩縣人口的八成以上，是日本屈指的人口集中地區[5]。那霸市中心是由國場川、安里川包圍的平地地區。1987年美軍將牧港住宅地區交還之後，該地區成為那霸新都心（日语：那覇新都心）並得到開發，正成為那霸新的中心[6]。
冲绳县,石垣市,24.3333,124.15,石垣市（日语：石垣市／いしがきし Ishigaki shi ，琉球語：石垣／イシガチ Isigaci）為日本沖繩縣八重山地區的政治、經濟、產業、交通中心，行政區域包括了琉球列島八重山群島的石垣島 等周邊島嶼，為日本最南端的城市，也是八重山支廳所在地。近年來，以浮潛及衝浪原由而搬遷至島上的人口有逐漸增加的趨勢。
冲绳县,宜野灣市,26.2817,127.7783,宜野灣市（日语：宜野湾市／ぎのわんし Ginowan shi ，琉球語：宜野湾／ジノーン Zinoon）屬於沖繩島中部地區，那霸市東北方約10公里處，面向西側海岸，市區中央為美國海軍陸戰隊普天間基地。西海岸地區以「沖繩會議中心」為核心，成為旅遊、商業中心。
冲绳县,浦添市,26.2458,127.7219,浦添市（日语：浦添市／うらそえし Urasoe shi ，琉球語：浦添／ウラシー Urasii）位於沖繩島南部地區與中部地區的分界，緊鄰那霸市，西側面海，北側為宜野灣市，東側為西原町。僅次於那霸市、沖繩市、宇流麻市為沖繩縣第四大城市。人口密度在縣內僅次於那霸市，比政令指定城市的埼玉市還高。產業以工商業為主。12世紀至14世紀間，浦添城為中山王國的首都。
冲绳县,名護市,26.5917,127.9775,名護市（日语：名護市／なごし Nago shi ，琉球語：名護／ナグー Naguu）位於琉球群島沖繩島北部地區唯一的城市，同時擁有東側和西側的海岸，市中心靠近名護灣。產業包括花卉、果樹、蔬菜的栽培，漁業、蝦養殖業。市區東方有的名護城的舊址在寒紅櫻花的名勝。2000年G8高峰會曾經在此舉行。
冲绳县,糸满市,26.1236,127.6658,絲滿市（日语：糸満市／いとまんし Itoman shi ，琉球語：糸満／イチュマン Icuman）為琉球群島沖繩島最南端的城市，位於那霸市附近，近年來人口成長快速，城市開發迅速，境內有全長約10公里的通得川從東向西穿越市區。過去以捕青花魚聞名，1982年可讓大型船使用的糸滿漁港完工，使得水產加工相關產業成為糸滿市的產業之一。還有以「琉球玻璃村」為代表的玻璃工藝和漆器。也有農業、畜牧業。每年農曆5月4日有龍舟競賽，農曆8月15日有海神祭的拔河儀式。糸滿市南部的舊三和村一帶在沖繩島戰役末期戰事最激烈的地區，現已被指定為沖繩戰跡國定公園。
冲绳县,沖繩市,26.3342,127.8056,沖繩市（日语：沖縄市／おきなわし Okinawa shi ，琉球語：古謝／クジャー Kuzaa）位於琉球群島沖繩島中部東岸的城市，位於那霸市東北方約20公里，為沖繩縣第二大城市。市區的北部有駐日美軍嘉手納空軍基地和嘉手納彈藥庫，範圍從沖繩市延伸到嘉手納町及恩納村。東南部有沖繩縣綜合運動公園，西南部有沖繩市營運動公園及市營棒球場，同時為日本職棒廣島東洋鯉魚的春季集訓場地。以沖繩市為主場的職業球隊有日本職業足球聯賽的FC琉球。
冲绳县,丰见城市,26.1772,127.6811,豐見城市（日语：豊見城市／とみぐすくし Tomigusuku shi ，琉球語：豊見城／ティミグシク ‧ トゥミグシク Timigusiku ‧ Tumigusiku）為琉球群島沖繩島南部西海岸的城市，為東西向的長方形，緊臨那霸市南方，與那霸市之間有漫湖相隔。於2002年從村制直接昇為市制。
冲绳县,宇流麻市,26.3792,127.8575,宇流麻市（日语：うるま市／うるまし Uruma shi ，琉球語：／ウルマ Uruma）位於琉球群島沖繩島中部東岸的城市，於2005年由具志川市、石川市、中頭郡勝連町和與那城町合併而成，現為沖繩縣第三大城。
冲绳县,宮古島市,24.8056,125.2811,宮古島市（日语：宮古島市／みやこじまし Miyakojima shi ，琉球語：宮古島／ミャークズマ Myaakuzma）位於琉球列島宮古島，2005年10月1日由平良市與宮古郡的伊良部町、上野村、城邊町、下地町共五市町村合併新產生的城市。
冲绳县,南城市,26.1633,127.7706,南城市（日语：南城市／なんじょうし Nanjō shi ，琉球語：南城／ナンジョー Nanjoo）位於琉球群島沖繩島南部的城市，於2006年1月1日由島尻郡的佐敷町、知念村、玉城村、大里村合併而成。為沖繩縣內11市中人口最少的城市，也是唯一沒有成立警察署及設置高中的城市，南城市警政事務由鄰近的與那原警察署管轄，多數人則是到與那原町就讀縣立高中。
北海道,札幌市,43.06208,141.3543,札幌市（日语：札幌市／さっぽろし Sapporo shi ）是位於日本北海道道央地區的都市，為北海道首府以及石狩振興局本部所在地，也是政令指定都市之一。其擁有超過190萬人口，是北海道最大都市、以及日本人口第五大都市，集中了北海道35%的人口，而札幌都市圈（日语：札幌都市圏）更集中了北海道約半數的人口。雖然地理位置位於北海道西部，但卻是北海道鐵路、高速公路、航空路線的放射點，因此在交通上也是北海道的中心。
北海道,函馆市,41.7733,140.7261,函館這一地名起源於在室町時代的1454年（享德3年），津輕豪族河野政通（日语：河野政通）在時稱「宇須岸」（ウスケシ（us-kes）或ウショロケシ（us-oro-kes），阿伊努語的意思為「灣岸之盡頭」）的漁村興建宅邸，因建築的外觀像箱子，故以「箱館」（和「函館」日語發音相同）作為地名。1869年，蝦夷地改名為北海道，箱館也改名為「函館」[4]。也有認為是來自阿伊努語「hak-casi」（淺籬笆）的觀點[5]。
秋田县,秋田市,39.7197,140.1025,秋田市（日語：秋田市／あきたし Akita shi ）是日本東北地方西北部，秋田縣中部的城市。秋田市在1889年設市，並在1997年和郡山市同時成為東北首批中核市。秋田市是秋田縣的縣廳所在地，並且也是秋田縣的經濟、交通中心及人口最多的城市。1997年秋田新幹線的開業使得秋田市的陸路交通更加便利，乘坐小町號列車最快只需約三個半小時就可從東京到達秋田市。秋田市在江戶時代是久保田藩的城下町，沿海地區的土崎港則是北前船的停靠地。現在秋田市是東北地方僅次於仙台市的人口第二多城市和日本海沿岸人口最多的城市。秋田港地區設有秋田火力發電所，是秋田市主要的工業地區。秋田市的八橋、寺內地區擁有日本最大的油田八橋油田。
秋田县,北秋田市,40.2261,140.3708,"北秋田市（日语：北秋田市／きたあきたし Kitaakita shi ）為秋田縣北部的一個市。誕生于2005年3月22日，由北秋田郡的鷹巢町、合川町、森吉町、阿仁町合并而成。是秋田縣内次于由利本莊市的第二大都市。市域面積1,15257平方公里，總人口39,448人。"
千叶县,木更津市,35.3761,139.9169,木更津市（日语：木更津市／きさらづし Kisarazu shi ），位於日本千葉縣中西部的房總半島、東京灣的中部東岸，對岸為橫濱市，是上總地方中代表的都市之一。就如同地名使用日文中表示港的津字一般，自古代以來就做為房總半島的物流據點發展為港町之一。
千叶县,松户市,35.7878,139.9031,松戶市（日语：松戸市／まつどし Matsudo shi ）位于千叶县西北、古时作为水戶街道的驿站、現在作为东京的住宅区而闻名。松戶市是千叶县内人口总数居于第4位的市。
东京都,武藏野市,35.7178,139.5661,武藏野市（日语：武蔵野市／むさしのし Musashino shi ），日本東京都多摩地區的一個市，鄰接東京都區部發展成一個郊外住宅都市，市中心的吉祥寺站周圍是多摩地區最大鬧區。往東京都特別區部的通勤率為445%（2010年「平成22年國勢調査」）。
神奈川县,镰仓市,35.3197,139.5525,鎌倉市（日语：鎌倉市／かまくらし Kamakura shi ）位於日本神奈川县三浦半島西面，是人口約為18萬人的小型城市。
神奈川县,茅崎市,35.3339,139.4047,茅崎市（日语：茅ヶ崎市／ちがさきし Chigasaki shi ）位於日本神奈川縣中南部、從東京中心約60千米、面对相模湾、湘南地方中心的都市。施行時特例市之一。
神奈川县,海老名市,35.4464,139.3908,海老名市（日语：海老名市／えびなし Ebina shi ）是位於日本神奈川縣中心的都市，面積約2648平方公里。以前歸高座郡。距離東京約50公里、橫濱約20公里，近年來已成為這兩個都市的通勤衛星城市，也是一個都市住宅與農業綠地共存的城市。
长野县,松本市,36.2381,137.9719,松本市內的岡田等地發現了3000年前的遺跡。彌生時代之後，稻作開始普及。松本市也發現了彌生時代中期之後的遺跡[2]。古墳時代的松本是本州東部較早開始繁榮的地區之一，4世紀時的弘法山古墳（日语：弘法山古墳）是東日本最古的古墳之一[3]。奈良時代末期至平安時代初期時，信濃國的國府從上田市搬遷到松本市地區[4]。市內的兔川寺（日语：兎川寺）、放光寺（日语：放光寺 (松本市)）、牛伏寺（日语：牛伏寺）等古刹的歷史均可追溯自飛鳥時代至奈良時代[2]。
长野县,小諸市,88888889,138.4291,小諸市（日语：小諸市／こもろし Komoro shi ）是位於日本長野縣東部的一個市，這裡在江戶時代之前曾經是個繁華的城下町（戰國時代、江戶時代以大名所居住的城為中心而繁華的市街）。
大阪府,大阪市,34.6936,135.5019,大阪市（日语：大阪市／おおさかし Ōsaka shi ）是位於日本大阪府中部的都市，為大阪府府治、以及大阪府兩個政令指定都市之一，亦是大阪都市圈、京阪神大都市圈、乃至於近畿地方的中心城市。全市面積223平方公里，夜間人口（常住人口）約有2695萬人，是日本人口第三多的城市[3]；日間人口則超過353萬人，位居日本第二[4]。
北海道,钏路市,﻿42.98,144.38,釧路市（日语：釧路市／くしろし Kushiro shi ）是位於日本北海道東部的城市，人口為北海道境內僅次於札幌市、旭川市與函館市的第四大都市，也是道東地區最大的城市，因此日本中央政府及北海道廳在此設有負責道東區域的分支機關，甚至越南和密克罗尼西亚联邦也在此設立名譽領事館。
北海道,美呗市,﻿43.3,141.9,美唄市（日语：美唄市／びばいし Bibai shi ）是位于北海道中部，空知綜合振興局轄下的一個城市，轄區東部為夕張山地延伸出的山區和丘陵，過去曾經盛產煤礦。
北海道,根室市,﻿43.33,145.5831,根室市（日语：根室市／ねむろし Nemuro shi ）為日本北海道根室振兴局的市，位於北海道最東端區域，也是根室支廳所在地。
北海道,千歲市,﻿42.82,141.65,千歲市（日语：千歳市／ちとせし Chitose shi ）是位于北海道石狩振興局南部的一個城市，為新千歲機場的所在地，因此也成為北海道的物流集散地。
宫城县,富谷市,﻿38.4,140.8953,富谷市（日语：富谷市／とみやし Tomiya shi ），是日本宮城縣中部的一市。
秋田县,仙北市,﻿39.7,140.7306,"仙北市（日语：仙北市／せんぼくし Senboku shi ）是位於日本秋田縣東部的市。成立於2005年9月20日，由仙北郡的角館町、田澤湖町、西木村合併而成。市轄區面積1,09356平方公里，總人口31,784人。日本最深的湖泊田澤湖位於該市，林業和觀光業發達。"
山形县,村山市,﻿38.48,140.38,村山市（日语：村山市／むらやまし Murayama shi ）是位于山形縣中部的一個人口約2万8千人的市。
福岛县,郡山市,﻿37.4,140.38,郡山市（日语：郡山市／こおりやまし Kōriyama shi ）是位于日本福島縣中部的中核市，古稱安積郡。
福岛县,磐城市,﻿37.03,140.88,磐城市（日语：いわき市／いわきし Iwaki shi ），是位於日本福島縣南部的一個城市。是日本的中核市之一。是福島縣內面積最大的城市。2019年10月時人口超過34萬人，較縣廳所在地福島市人口為多，在東北地方的人口數僅次於宮城縣仙台市而排名第二。市內的磐城都市圈，人口繼郡山都市圈、福島都市圈縣內第三大。
茨城县,水户市,﻿36.37,140.47,水戶市（日语：水戸市／みとし Mito shi ）是日本茨城縣中部的城市，也是茨城縣的縣府所在地，位於關東地方東北部，人口約26万人。昔日是東茨城郡，目前是中核市。
茨城县,日立市,﻿36.6,140.65,日立市（日语：日立市／ひたちし Hitachi shi ）是日本關東地方北部，茨城縣北部的城市。人口約20万人。在過去是多賀郡。
茨城县,土浦市,﻿36.07,140.2,土浦市（日语：土浦市／つちうらし Tsuchiura shi ）是位於茨城縣南部的一市。毎年10月都會在此舉行土浦全國花火競技大會。因與築波研究學園都市鄰接被指定為業務核都市。
茨城县,古河市,﻿36.18,139.7,古河市（日语：古河市／こがし Koga shi ）是位於關東地方中央，茨城縣西端的一個市。2005年9月12日設立由，由舊古河市、總和町、三和町1市2町新設合併誕生。人口約15萬人。
茨城县,龙崎市,﻿35.92,140.18,龍崎市（日语：龍ケ崎市／りゅうがさきし Ryūgasaki shi ）是位於茨城縣南部的一市。
茨城县,牛久市,﻿35.98,140.15,牛久市（日语：牛久市／うしくし Ushiku shi ）是位於茨城縣南部，JR常磐線沿線的一市。世界第三高的佛像牛久大佛位於該市東部。
茨城县,神栖市,﻿35.89,140.6647,神栖市（日语：神栖市／かみすし Kamisu shi ）是茨城縣最東南端的一市。設立于2005年8月1日，由鹿島郡神栖町與鄰接的波崎町編入合并誕生。
栃木县,宇都宮市,﻿36.55,139.88,宇都宮市（日语：宇都宮市／うつのみやし Utsunomiya shi ）是位於日本栃木縣中部的都市，為栃木縣首府、以及中核市之一，同時是北關東最大都市，人口約51萬人。
群马县,前橋市,﻿36.38,139.07,前橋市（日语：前橋市／まえばしし Maebashi shi ）是日本群馬縣中南部，關東地方西北部的城市。也是群馬縣廳的所在地，市域的大部份過去屬勢多郡，另有一部分來自群馬郡與佐波郡。該市在2001年4月1日成為特例市，2009年成為中核市。
群马县,伊勢崎市,﻿36.32,139.2,伊勢崎市（日语：伊勢崎市／いせさきし Isesaki shi ）是群馬縣南部的城市。在2005年1月1日進行市町村合并后人口突破了20萬人，現為施行時特例市。該市也是群馬縣內少數的幾個人口仍在增加的城市。
群马县,澀川市,﻿36.48,139,澀川市（日语：渋川市／しぶかわし Shibukawa shi ）是日本群馬縣中部，關東平原西北部的城市。距離東京都約有120公里的距離。古代該市是宿場町。現在則是前橋市和群馬縣北部主要城市沼田市之間的交通中轉地。也是前往日本國內幾個知名溫泉（草津温泉、伊香保温泉、四万温泉）的交通要點。
群马县,藤冈市,﻿36.27,139.07,藤岡市（日语：藤岡市／ふじおかし Fujioka shi ）是群馬縣南部的城市。2006年1月1日，鬼石町編入該市，市域擴大，人口也達到7萬人以上。
群马县,富岡市,﻿36.26,138.89,富岡市（日语：富岡市／とみおかし Tomioka shi ）是群馬縣西南部的城市。1872年（明治5年），日本最早的繅絲工廠「富岡繅絲場」設立于此。時代劇水戶黃門的第一代水戶光圀的扮演者東野英治郎出生于此。現任市長為岩井賢太郎。
埼玉县,川越市,﻿35.93,139.48,川越市（日语：川越市／かわごえし Kawagoe shi ）是位於日本埼玉縣西南部的市，過去隸屬於入間郡。目前是中核市與業務核都市。
千叶县,千叶市,﻿35.6,140.1,千葉市（日语：千葉市／ちばし Chiba shi ）是日本千葉縣的縣廳所在地，也是政令指定都市、業務核都市。本市位於東京東南邊靠東京灣，並且有三條交通線路接往東京。
千叶县,成田市,﻿35.78,140.32,成田市（日语：成田市／なりたし Narita shi ）是位於日本千叶县北部的城市。境內有成田国际机场，门前町成田山新胜寺是成田市最早發展的地區，本市也因此而繁榮。人口约10万人。
千叶县,東金市,﻿35.56,140.3661,東金市（日语：東金市／とうがねし Tōgane shi ）是千葉縣的一個城市，位於九十九里平原（日语：九十九里平野）。人口約6萬人。
千叶县,四街道市,﻿35.67,140.1683,四街道市（日语：四街道市／よつかいどうし Yotsukaidō shi ）是千葉縣北部，被千葉市和佐倉市圍繞的市。往千葉市通勤率達285%，往東京都特別區部通勤率則有157%（平成22年國勢調査）。
千叶县,袖浦市,﻿35.43,139.9547,袖浦市（日语：袖ケ浦市／そでがうらし Sodegaura shi ）是千葉縣中部的一市，面向東京灣。相較于周邊該市，該市設立較晚。
东京都,八王子市,﻿35.67,139.32,八王子市（日语：八王子市／はちおうじし Hachiōji shi ）是日本东京都下轄的一个中核市，位於东京市中心以西約40公里的近郊。八王子市位於多摩地區的心臟部位，也是日本第四次首都圈基本計畫中指定的業務核都市。
东京都,多摩市,﻿35.63,139.45,多摩市（日语：多摩市／たまし Tama shi ）是位於東京都多摩地方的城市。為業務核都市。面積2108km²。於1971年（昭和46年）11月1日其開始施行市制。
神奈川县,横须贺市,﻿35.25,139.67,横须贺市（日语：横須賀市／よこすかし Yokosuka shi ）是一个位于日本神奈川县南东部三浦半岛的城市。由于横须贺市处于东京湾入口，使得横须贺市成为一个繁荣的军港都市。日本的海上自卫队、和美国海军第七舰队的司令部等都设立于此。人口數在神奈川縣內位於横濱市、川崎市、相模原市之後，排名第4位，是中核市。
神奈川县,川崎市,﻿35.52,139.7,川崎市（日语：川崎市／かわさきし Kawasaki shi ）是位於日本神奈川县東北端的都市，位處東京、橫濱兩大都市之間，為政令指定都市。其為面積最小的政令指定都市，總人口數則為153萬，2019年5月超过神户市成为日本人口第6多的城市，同時是日本除都道府縣廳所在地以外人口最多的都市。
神奈川县,相模原市,﻿35.57,139.37,相模原市（日语：相模原市／さがみはらし Sagamihara shi ）是位於日本神奈川縣北部的城市，為神奈川縣內僅次於横濱市和川崎市的人口第三大城市。2007年3月11日合併2町後人口超過70萬。2010年4月1日成為政令指定都市，是日本第19個、以及神奈川縣第3個政令指定都市。下轄綠區、中央區、南區等3區。透過鐵路約40分鐘可到達東京、橫濱市中心。
神奈川县,厚木市,﻿35.43,139.37,厚木市（日语：厚木市／あつぎし Atsugi shi ）位於日本神奈川縣中心的都市，且是一個施行時特例市。
新潟县,长冈市,﻿37.43,138.83,長岡市（日语：長岡市／ながおかし Nagaoka shi ）是位於日本新潟縣中部（中越地方）的都市，人口約27萬，為新潟縣第二大都市、以及中越地方的中心都市，同時是施行時特例市之一。有一般機械、電子、精密機械和紡織等工業；設有長岡技術科學大學。1984年被指定為技術密集都市（日语：テクノポリス），現正往生產、科研及教育、住宅平衡發展。
新潟县,三条市,﻿37.63,138.97,"三條市（日语：三条市／さんじょうし Sanjō shi ）為一位于日本新潟縣中央的城市。市區面積43201平方公里，總人口103,554人。為新潟縣內少數的幾個工業城市。目前是縣內人口第五位的城市。施行市制于1934年1月1日。2005年5月1日，三條市、南蒲原郡榮町和南蒲原郡下田村合併為新「三條市」。"
新潟县,新發田市,﻿37.95,139.33,"新發田市（日语：新発田市／しばたし Shibata shi ）是日本的一座位于新潟縣下越地方的城市。市區面積53282平方公里，總人口103,752人。現任市長為片山吉忠。"
新潟县,小千谷市,﻿37.32,138.8,"小千谷市（日语：小千谷市／おぢやし Ojiya shi ）是位於日本新潟縣中越地方的市。市區面積15512平方公里，信濃川流過該市。總人口40,029人。施行市制于1954年3月10日。"
新潟县,加茂市,﻿37.67,139.03,"加茂市（日语：加茂市／かもし Kamo shi ）為一位于日本新潟縣中部的城市。市區面積13367平方公里，總人口31,481人。有「越後小京都」之稱。施行市制于1954年3月10日。現任市長為2019年上任的藤田明美。"
新潟县,十日町市,﻿37.13,138.75,"十日町市（日语：十日町市／とおかまちし Tōkamachi shi ）是一座位于新潟縣南部的城市。冬季積雪可達2-3米，是日本少數的幾個豪雪區域。市區面積58992平方公里，總人口62,878人。 舊十日町市誕生于1954年，是由中魚沼郡十日町、中条村、川治村及六箇村合併而成。后中魚沼郡吉田村、下條村和水澤村陸續編入。2005年4月1日，中魚沼郡川西町、中里村、東頸城郡松代町、松之山町4町村合併，新「十日町市」誕生。"
新潟县,见附市,﻿37.53,138.92,"見附市（日语：見附市／みつけし Mitsuke shi ）為一位于新潟縣中部地區的城市。市區面積7796km²，總人口 43,454人。施行市制于1954年3月31日。現任市長為久住時男。據說「見附（みつけ）」之名的由來是「泡在水中的土地（水に漬かる土地）」，取「水（みず）」和「漬かる（つかる）」的開頭組成。"
新潟县,燕市,﻿37.67,138.97,"燕市（日语：燕市／つばめし Tsubame shi ）為一位于新潟縣中部的城市。市制施行于1954年4月1日，由4町村合併而成。2006年3月20日，又與西蒲原郡吉田町、分水町合併，誕生了新燕市。長期以來該市與三條市關係密切，要求兩市合并的聲音也非常高。目前市區面積11088平方公里，總人口84,384人。"
新潟县,妙高市,﻿37.03,138.25,"妙高市（日语：妙高市／みょうこうし Myōkō shi ）是一座位于新潟縣上越地方的城市。誕生于2005年4月1日，是由新井市和妙高高原町及妙高村合并成的新城市。市區面積44552平方公里，總人口37,905人。"
新潟县,五泉市,﻿37.75,139.18,"五泉市（日语：五泉市／ごせんし Gosen shi ）為一位于新潟縣下越地方的城市。該市苗木產量位居日本第一位，切花產量位居日本第二位。市區面積35187平方公里，總人口56,965人。"
新潟县,上越市,﻿37.15,138.23,上越市（日语：上越市／じょうえつし Jōetsu shi ）是位於日本新潟縣西部（上越地方）的市，為新潟縣第三大城市，也是上越地方的中心都市。目前是施行時特例市。其東距新潟市有133公里，西距金澤市有192公里。
新潟县,佐渡市,﻿38.02,138.37,"佐渡市（日语：佐渡市／さどし Sado shi ）是一個位于新潟縣西北部的城市，管轄範圍即為佐渡島全島。2004年3月1日，佐渡島内全部的市町村（兩津市、相川町、佐和田町、金井町、新穂村、畑野町、真野町、小木町、羽茂町、赤泊村）合併，誕生了目前的佐渡市。面積為85510平方公里，總人口68,509人。"
新潟县,鱼沼市,﻿37.23,138.97,"魚沼市（日语：魚沼市／うおぬまし Uonuma shi ）是一座位於日本新潟縣中越地方的城市。市域面積94693平方公里，總人口43,618人。魚沼市誕生于2004年11月1日，是由堀之内町、小出町、湯之谷村、廣神村、守門村、入廣瀨村合併而成的城市。"
新潟县,南魚沼市,﻿37.07,138.88,"南魚沼市（日语：南魚沼市／みなみうおぬまし Minamiuonuma shi ）為一位于日本新潟縣中越地方的城市。誕生于2004年11月1日，是由南魚沼郡内的六日町和大和町2町合併成的新城市。市區面積58482km²，總人口57,910人（2016年），名產為越光米。"
新潟县,胎内市,﻿38.07,139.42,胎內市（日语：胎内市／たいないし Tainai shi ）為一位于新潟縣北部的城市。其市域相當于舊中條町和黑川村。胎內一名來源于愛努語，意為『清水流過的地方』。現任市長為井畑明彦（いばた　あきひこ）。
富山县,富山市,﻿36.7,137.22,"富山市（日语：富山市／とやまし Toyama shi ）是位於日本富山縣中部的都市，為富山縣首府，同時也是富山縣最大的市町村（包括轄區面積與人口）。它位於沖積平原上，是日本海沿岸的工業城市，面積有124185平方公里，人口418,710人。第二次世界大戰中市區曾受轟炸，戰後重建為新城市。市內有城蹟公園等名勝。"
富山县,高冈市,﻿36.75,137.03,高岡市（日语：高岡市／たかおかし Takaoka shi ）是日本北陸地方中部，富山縣西部的城市。其郊外是越中國首府的所在地。該市也是著名漫畫家，哆啦A夢的作者藤子·F·不二雄的故鄉。高岡市是富山縣內人口第二多的城市，僅次於縣廳所在地富山市。面積在富山縣內的市中位列第8位。高岡市在1889年4月1日設市，是日本最早設立的市之一。在江戶時代高岡市是高岡城的城下町，近代之後發展為工商業城市，鋁製品工業發達。
富山县,鱼津市,﻿36.8,137.4,"魚津市（日语：魚津市／うおづし Uozu shi ）為日本一位于富山縣東部的城市，人口規模居于縣內第七位。(「平成大合併」以前位居第四)。該市的沿海地域以海市蜃樓而聞名、另外日本的國家指定特別天然紀念物魚津埋没林也位于此。曾名魚堵、小戶浦、小戶和小津。市區面積2006平方公里，總人口46,402人。"
富山县,冰見市,﻿36.85,136.98,冰見市（日语：氷見市／ひみし Himi shi ）是日本富山縣的一個城市。現任市長為林正之。
富山县,滑川市,﻿36.77,137.33,"滑川市（日语：滑川市／なめりかわし Namerikawa shi ）為一位于日本富山縣東部的城市。市區面積5461平方公里，總人口 34,263人。現任市長為中屋一博。"
富山县,黑部市,﻿36.87,137.45,"黑部市（日语：黒部市／くろべし Kurobe shi ）為一位于富山縣東部，面向日本海的城市。市域面積42796平方公里，總人口37,039人。現任市長堀内康男。"
富山县,砺波市,﻿36.65,136.97,"砺波市（日语：砺波市／となみし Tonami shi ）為一位于富山縣西部的市。以生產郁金香的球根而聞名。由于位于砺波平原中部，地理位置優越，其人口成長率也較周邊市町村為高。市區面積12696平方公里，總人口49,448人。現任市長為安念鐵夫。"
富山县,小矢部市,﻿36.68,136.87,"小矢部市（日语：小矢部市／おやべし Oyabe shi ）為日本富山縣的城市。市域面積13411平方公里，總人口33,603人。現任市長為櫻井森夫。"
富山县,南砺市,﻿36.58,136.92,"南砺市（日语：南砺市／なんとし Nanto shi ）為日本富山縣西部的城市。世界遺産「白川鄉與五箇山的合掌造聚落」位于該市。市區面積66886平方公里，總人口58,203人，"
石川县,金泽市,﻿36.57,136.65,金澤市（日语：金沢市／かなざわし Kanazawa shi ），日本城市，位於石川縣。為石川縣的縣廳所在地，屬中核市。是北陸地方的最大城市。金澤成為日本一個主要的旅游景點，曾是小京都之一，日本三大名園之一的兼六園就位於金澤。
石川县,七尾市,﻿37.03,136.97,"七尾市（日语：七尾市／ななおし Nanao shi ）是北陸地方西部的都市，為石川縣能登地方的中心都市。面積31792平方公里，人口61,971人。"
石川县,小松市,﻿36.42,136.45,"小松市（日语：小松市／こまつし Komatsu shi ）是石川縣南部面向日本海的市。人口為石川縣內僅次于金澤市、白山市的第三大城市。面積37113平方公里。截至2018年4月1日，该市人口为106,658。"
石川县,河北市,﻿36.72,136.7067,"河北市（日语：かほく市／かほくし Kahoku shi ）為石川縣中部的一市。為石川縣自松任市（現白山市）以来第九個施行市制的地方。面積6476平方公里，總人口34,334人。"
福井县,敦賀市,﻿35.65,136.07,敦賀市（日语：敦賀市／つるがし Tsuruga shi ）是位于日本福井縣南部的城市，北側臨敦賀灣（日语：敦賀湾），東南側為野坂山地（日语：野坂山地），西南側為比良山地（日语：比良山地），主要市區位於笙之川（日语：笙の川）和井口川下游的沖積平原；南側野坂山地與比良山地之間為過去日本過去近江通往北陸道的隘口愛發關，再加上水深足夠的敦賀灣，自古即是在日本海側的主要港口，也因此敦賀也就成為自關西進入北陸道後的交通樞紐。
山梨县,甲府市,﻿35.67,138.57,甲府市（日语：甲府市／こうふし Kōfu shi ）是日本山梨县的縣廳所在地，地处山间甲府盆地之中，市区地势平坦，並包含南北方的山區，外形南北狹長，建立于公元1519年，也是日本戰國時代大名武田氏的根據地過去即為甲斐國國府，市名來自[甲斐府中]的簡稱。現為中核市。
长野县,大町市,﻿36.5,137.85,大町市（日语：大町市／おおまちし Ōmachi shi ）為長野縣西北部的市，以作為立山黑部阿爾卑斯路線在長野側的玄關口知名。
岐阜县,岐阜市,﻿35.42,136.77,岐阜市（日语：岐阜市／ぎふし Gifu shi ），是日本中部岐阜縣南部的都會地區，岐阜縣縣政府所在地。行政區域為原稻葉郡、山縣郡、本巢郡、羽島郡的各一部分。為日本指定中核市之一。
岐阜县,美浓加茂市,﻿35.43,137.02,美濃加茂市（日语：美濃加茂市／みのかもし Minokamo shi ）為日本岐阜縣南部的市。誕生于1954年（昭和29年）4月1日 ，由太田町、古井町、山之上村、蜂屋村、加茂野村、伊深村、三和村、下米田村、和知村合併而成。現任市長為渡邊直由。
静冈县,滨松市,﻿34.72,137.73,"濱松市（日语：浜松市／はままつし Hamamatsu shi ）是位於日本靜岡縣西部遠州地區的市，也是靜岡縣第2個政令指定都市，人口約79萬，為靜岡縣內人口最多的市町村，轄區面積為1,55804平方公里，是日本面積第二大的市，僅次於岐阜縣高山市[2]。其為日本重要的工業都市，鈴木、本田、山葉等日本大型企業都是創業於此。"
静冈县,燒津市,﻿34.87,138.32,燒津市（日语：焼津市／やいづし Yaizu shi ）為靜岡縣中部，位于旧駿河國的市。舊為志太郡。主要產業為遠洋漁業和水產加工業。現任市長為清水泰。
静冈县,牧之原市,﻿34.74,138.2247,牧之原市（日语：牧之原市／まきのはらし Makinohara shi ）為日本靜岡縣的市。成立于2005年10月11日，由榛原郡相良町、榛原町合併而成。
爱知县,岡崎市,﻿34.95,137.17,岡崎市（日语：岡崎市／おかざきし Okazaki shi ）是日本愛知縣的中核市。昔日是三河國中央位置的城市。以生產「八丁味噌」而全日本聞名。
爱知县,瀨戶市,﻿35.22,137.08,瀨戶市（日语：瀬戸市／せとし Seto shi ）是一位於日本中部地方愛知縣中北部的市級行政區。中京圈的無線數位電視訊號塔瀨戶數位塔位于該市南部。現任市長為增岡錦也。
爱知县,春日井市,﻿35.25,136.97,春日井市（日语：春日井市／かすがいし Kasugai shi ）是名古屋市以北的一個城市。目前是施行時特例市。庄內川流過該市南部。JR中央線及國道19號橫貫該市。不少工作在名古屋市的人居住于該市。平安時代活躍的書法家小野道風出身于此。全日本有八成的仙人掌在此生產。現任市長為伊藤太。
爱知县,津島市,﻿35.18,136.73,津島市（日语：津島市／つしまし Tsushima shi ）是愛知縣西部的一市。
爱知县,碧南市,﻿34.88,137,碧南市（日语：碧南市／へきなんし Hekinan shi ）是位於日本愛知縣中部的市，地理上屬於西三河地方（日语：西三河）。其坐落於古代三河國碧海郡（日语：碧海郡）的南部，因而得名。
爱知县,刈谷市,﻿34.98,137,刈谷市（日语：刈谷市／かりやし Kariya shi ）為愛知縣中央西三河地域西端的市，屬於中京工業地帶。
爱知县,安城市 (日本),﻿34.97,137.08,安城市（日语：安城市／あんじょうし Anjō shi ）為位于日本愛知縣中部西三河地方的一市。安城市是愛知縣內的第13個市，人口總數位居愛知縣內第七位。
爱知县,西尾市,﻿34.87,137.07,西尾市（日语：西尾市／にしおし Nishio shi ）是愛知縣矢作川流域南端的市。為抹茶的生産地。殉國七士廟所在地。
爱知县,犬山市,﻿35.38,136.95,犬山市（日语：犬山市／いぬやまし Inuyama shi ）是位於日本愛知縣尾张地方东北部的城市。人口約7万人。
爱知县,常滑市,﻿34.88,136.83,常滑市（日语：常滑市／とこなめし Tokoname shi ）是日本爱知县的一个市，建于1954年4月1日。常滑市位於愛知縣的西南方、知多半島的西海岸，2005年2月17日启用的中部国际机场就位于常滑市。
爱知县,江南市,﻿35.33,136.87,江南市（日语：江南市／こうなんし Kōnan shi ）是位於日本愛知縣北部的市，由於位於木曾川南側，故稱為「江南」。
爱知县,小牧市,﻿35.28,136.92,小牧市（日语：小牧市／こまきし Komaki shi ）是一座日本城市，位于愛知縣西北部，浓尾平原的中央。
爱知县,稻泽市,﻿35.25,136.78,稻澤市（日语：稲沢市／いなざわし Inazawa shi ）是愛知縣西北部，濃尾平原中部的市。庭園植栽的故鄉
爱知县,新城市,﻿34.9,137.5,新城市（日语：新城市／しんしろし Shinshiro shi ）是愛知縣東部東三河地區的市。是愛知縣內面積第二大，僅次於豐田市的自治體。
爱知县,東海市 (日本),﻿35.02,136.9,東海市（日语：東海市／とうかいし Tōkai shi ）為愛知縣知多半島最北部的市。為鋼鐵基地及工業城市。
爱知县,大府市,﻿35.02,136.97,大府市（日语：大府市／おおぶし Ōbu shi ）是愛知縣知多半島北部的市，名古屋的住宅城市之一。
爱知县,知多市,﻿35,136.87,知多市（日语：知多市／ちたし Chita shi ）是愛知縣知多半島西北部的市。其名稱來自知多郡。它的面積是約45km²，是香港的大約二十五分之一。總人口是84039，即每平方公里約1116人。
爱知县,知立市,﻿35,137.12,知立市（日语：知立市／ちりゅうし Chiryū shi ）是愛知縣中部的市。為愛知縣第二小的市，但人口密度高。
爱知县,尾張旭市,﻿35.22,137.03,尾張旭市（日语：尾張旭市／おわりあさひし Owariasahi shi ）是愛知縣西北部的市。
爱知县,岩倉市,﻿35.28,136.87,岩仓市（日语：岩倉市／いわくらし Iwakura shi ）是愛知縣西北部的市。為愛知縣最小的市。其人口在愛知縣內是所有市的倒數第三，但人口密度位居次席。巴西人占當地住民比例占5%。
爱知县,丰明市,﻿35.05,137.02,豐明市（日语：豊明市／とよあけし Toyoake shi ）是愛知縣名古屋市以東的市。為名古屋市的住宅城市。
爱知县,日进市,﻿35.13,137.03,日进市（日语：日進市／にっしんし Nisshin shi ）建于1994年10月1日，是位于日本爱知县境内的一座城市。
爱知县,田原市,﻿34.67,137.27,田原市（日语：田原市／たはらし Tahara shi ）是愛知縣南部，渥美半島上的市。
爱知县,愛西市,﻿35.15,136.73,愛西市（日语：愛西市／あいさいし Aisai shi ）是愛知縣西北部的市。設立于2005年4月1日，由海部郡佐屋町、立田村、八開村、佐織町2町2村合併而成。
爱知县,清須市,﻿35.2,136.85,清須市（日语：清須市／きよすし Kiyosu shi ）是愛知縣西北部的市。鳥山明出身於該地。
爱知县,北名古屋市,﻿35.25,136.87,北名古屋市（日语：北名古屋市／きたなごやし Kitanagoya shi ）是愛知縣西北部的市。設立于2006年3月20日、由西春日井郡師勝町和西春町合并而成。
爱知县,彌富市,﻿35.12,136.72,彌富市（日语：弥富市／やとみし Yatomi shi ）是愛知縣西南部的市。設立于2006年4月1日，由海部郡彌富町與同郡的十四山村編入合併而成。為知名的金魚和文鳥產地。
三重县,名張市,﻿34.63,136.1,名張市（日语：名張市／なばりし Nabari shi ）是位於日本三重縣西部，屬於伊賀地方（日语：伊賀地方）的城市；轄區主要位於上野盆地（日语：上野盆地）南部，四周為山林所環繞。
三重县,尾鷲市,﻿34.07,136.18,"尾鷲市（日语：尾鷲市／おわせし Owase shi ）是位於日本三重縣南部的城市，東鄰熊野灘，沿海海岸線為沉水海岸（英语：Submergent coastline），轄內90%的區域為山林地，由於黑潮流過海岸，春秋時來自南方溫暖潮濕的季風常吹入此地，也因此帶來降雨量非常多，年均降雨量可達3,800毫米。"
三重县,熊野市,﻿33.88,136.1,熊野市（日语：熊野市／くまのし Kumano shi ）是位於日本三重縣南部的城市，也是三重縣南部的主要城市；東側鄰熊野灘，主要市區位於井戶川河口的木本町地區和井戶町地區。
三重县,伊勢市,﻿34.48,136.72,伊勢市（日语：伊勢市／いせし Ise shi ）是位於日本三重縣東南部的城市，以其境內的伊勢神宮聞名；過去曾是伊勢神宮的門前町，現在也是伊勢志摩（日语：伊勢志摩）地方的主要都市。
滋贺县,大津市,﻿35.02,135.85,大津市（日语：大津市／おおつし Ōtsu shi ）是日本滋賀縣轄下的城市，位於琵琶湖西南岸，也是滋賀縣的縣廳所在地。
滋贺县,长滨市,﻿35.38,136.28,長濱市（日语：長浜市／ながはまし Nagahama shi ）是位於日本滋賀縣北部的城市，西側臨琵琶湖，東部為伊吹山地（日语：伊吹山地），北部為野坂山地（日语：野坂山地）。如果僅算陸地面積，為滋賀縣內面積最大的行政區劃，但若將琵琶湖上的水域面積也算入，則次於高島市為縣內第二；人口數則僅次於大津市和草津市，為滋賀縣內人口第三多的城市。
滋贺县,草津市,﻿35.02,135.97,草津市（日语：草津市／くさつし Kusatsu shi ）是位於日本滋賀縣西南部的城市，西臨琵琶湖，南側與大津市相鄰，在滋賀縣內的人口數也僅次於大津市，排名第二。
京都府,舞鹤市,﻿35.45,135.32,舞鹤市（日语：舞鶴市／まいづるし Maizuru shi ）是日本的城市，位於京都府的北部，是該府下轄的次級行政區之一。舞鶴市北面向日本海，以市内东部的军港做为中心，靠造船和玻璃工業發展而成。市內以五老岳（日语：五老岳）劃分為東西兩個區域，包括過去以軍港發展主軸的東舞鶴（日语：東舞鶴）地區和以田邊城（日语：田辺城 (丹後国)）城下町發展而為工商中心的西舞鶴（日语：西舞鶴）地區；而其地名也源自於田边城的别名—「舞鹤城」。
大阪府,堺市,﻿34.57,135.48,堺市（日语：堺市／さかいし Sakai shi ）是位於日本大阪府中部的市，為政令指定都市，乃大阪府轄下人口及面積都名列第二的行政區劃，次於大阪市。地理上位處近畿平原南部，大和川下游左岸區域，西面大阪灣，北臨大阪市。其都市發展崛起於戰國時代，1889年建市，2006年4月1日升格為大阪府繼大阪市之後第2個政令指定都市。因為緊鄰大阪市區，其白天人口低於居住人口，因此也被視為大阪的衛星城市。
大阪府,丰中市,﻿34.78,135.47,豐中市（日语：豊中市／とよなかし Toyonaka shi ）是位在大阪府的北部，北攝地區裡的一個城市，距離大阪市中心約只有十五公里，是大阪都市圈近郊的一個衛星城市，西北部還有大阪國際機場，由於交通便利，在大阪府中為人口第五多的行政區劃，次於大阪市、堺市、東大阪市、枚方市。2001年升格成為特例市，2012年進一步升格成為中核市。
大阪府,池田市,﻿34.82,135.43,池田市（日语：池田市／いけだし Ikeda shi ）是位於日本大阪府西北部的城市，轄區成南北方向細長狀，轄區北部位於北攝山系（日语：北摂山系），南部位於猪名川（日语：猪名川）的沖積平原。
大阪府,吹田市,﻿34.77,135.52,吹田市（日语：吹田市／すいたし Suita shi ）是位于日本大阪府北部的一个城市，轄區南側屬於大阪平原，北側為千里丘陵（日语：千里丘陵），1970年日本万国博览会曾在此舉辦。
大阪府,高槻市,﻿34.85,135.62,高槻市（日语：高槻市／たかつきし Takatsuki shi ）是位於日本大阪府北部的城市，該市夾處近畿地方兩大都市大阪與京都之間，因此成為這兩座城市的通勤城市，其市章也融合了這兩個城市的市章。
大阪府,枚方市,﻿34.82,135.65,枚方市（日语：枚方市／ひらかたし Hirakata shi ）是位於日本大阪府東北部的都市，與京都府、奈良縣接鄰，大致位於大阪市和京都市的中間，以七夕傳說和用菊花做的偶人展聞名。為大阪府轄內第4大城市，人口約40萬，次於大阪市、堺市與東大阪市。
大阪府,四條畷市,﻿34.74,135.6394,四條畷市（日语：四條畷市／しじょうなわてし Shijōnawate shi ）是位於日本大阪府東北部的城市。主要市區位於西側的平原上，但轄區東側三分之二位於生駒山地（日语：生駒山地），東部的田原地區甚至已經位於生駒山地的東麓，也是大阪府內唯一位生駒山地東側的區域，也因此該區域常被誤認為屬奈良縣。而田原地區的東北側為奈良縣生駒市的北田原町地區，東南側為同屬生駒市的南田原町地區，因此有時以「西田原」稱呼轄內的田原地區，「東田原」稱呼生駒市區。
兵库县,姫路市,﻿34.82,134.68,姬路市（日语：姫路市／ひめじし Himeji shi ）是位於日本近畿地方西部、兵庫縣西南部（播磨地方）的都市，也是播磨地方的經濟、文化及教育中心。人口超過53萬，是兵庫縣內次于神戶市的第二大城市，同時也是日本首批中核市。姬路市和周圍的城市共同組成了人口超過70萬人的姬路都市圏（日语：姫路都市圏）[2]。
兵库县,尼崎市,﻿34.73,135.4,尼崎市（日语：尼崎市／あまがさきし Amagasaki shi ）是位於日本兵庫縣東南部的城市，與大阪市相鄰，人口居于兵庫縣內第四位，但人口密度為縣內最高，現為中核市和保健所政令市。
兵库县,西宫市,﻿34.73,135.33,西宮市（日语：西宮市／にしのみやし Nishinomiya shi ）是位於日本兵庫縣東南部的城市，地處俗稱的阪神地區（大阪市至神戶市之間的地區）。根據2016年12月的統計，人口約49萬，為兵庫縣第三大的城市，現為中核市之一。
兵库县,丰冈市,﻿35.53,134.82,豐岡市（日语：豊岡市／とよおかし Toyooka shi ）是位於日本兵庫縣北部（但馬地域）的城市，為兵庫縣北部的主要城市，也是兵庫縣面積最大的城市。特產為「豐岡鞄」。
兵库县,寶塚市,﻿34.8,135.3603,寶塚市（日语：宝塚市／たからづかし Takarazuka shi ）是位於日本兵庫縣東南部的城市，現為施行時特例市。知名的寶塚歌劇團發祥于此，其的主要據點寶塚大劇場也座落于該市。
兵库县,川西市,﻿34.83,135.4172,川西市（日语：川西市／かわにしし Kawanishi shi ）是位于日本兵庫縣東南部的城市，轄區外型類似海馬，主要市區位於最南部，中部及北部為包括清和台（日语：清和台）、阪急日生新市鎮（日语：阪急日生ニュータウン）的新市鎮區域。
兵库县,淡路市,﻿34.43,134.92,淡路市（日语：淡路市／あわじし Awaji shi ）是位於日本兵庫縣淡路島北部的城市。往北可通過明石海峽大橋與位於本州的神戶市相接，南側則是同位於淡路島的洲本市，西側為播磨灘，東為大阪灣；轄區中央為丘陵地，海岸則擁有多個漁港和海水浴場。
奈良县,奈良市,﻿34.68,135.78,奈良市（日语：奈良市／ならし Nara shi ）是位於日本奈良縣北部的城市，是奈良縣最大的城市，也是奈良县縣政府所在地，現為中核市。
和歌山县,和歌山市,﻿34.23,135.17,和歌山市（日语：和歌山市／わかやまし Wakayama shi ）是位於日本和歌山县北部的城市，為中核市，也是和歌山縣的縣廳所在地；現在的和歌山市土地面積僅占全和歌山縣約4%，但人口卻接近全縣的40%。
和歌山县,新宮市,﻿33.72,136,新宮市（日语：新宮市／しんぐうし Shingū shi ）是位于日本和歌山縣東南部的城市。
和歌山县,田邊市,﻿33.73,135.38,田邊市（日语：田辺市／たなべし Tanabe shi ）是位於日本和歌山縣南部的主要城市，人口數為和歌山縣內第二多，其面積為近畿地方最大的城市。
和歌山县,橋本市,﻿34.32,135.6,橋本市（日语：橋本市／はしもとし Hashimoto shi ）是位於日本和歌山縣東北部的城市。
鸟取县,倉吉市,﻿35.43,133.8256,倉吉市（日语：倉吉市／くらよしし Kurayoshi shi ）是位於日本鳥取縣中部的城市，也是整個鳥取縣中部地區主要城市。
冈山县,岡山市,﻿34.65,133.92,岡山市（日语：岡山市／おかやまし Okayama shi ）是位於日本岡山縣南部的城市，也是岡山縣的縣廳所在地。岡山市是日本著名的桃太郎傳說的故事舞台，亦是眾多高級水果的產地。岡山自江戶時代是岡山藩池田氏的城下町，市中心有日本三名園之一的後樂園以及岡山城等景點。岡山市自古就是一座學術城市。自明治至昭和的戰前時期，岡山市擁有中國・四國地方唯一以數字冠名的舊制高等學校第六高等學校（日语：第六高等学校 (旧制)），以及中國・四國地方首個大學舊制岡山醫科大學（日语：岡山医科大学 (旧制)）等學校。現在岡山市中心仍有眾多大學等高等教育機構。岡山市還是中國地方及四國地方的節點。1980年代之後，隨著瀨戶大橋的通車使得中國地方、四國實現鐵路直通。加上山陽自動車道的通車，岡山市的交通大幅改善。岡山都市圈（日语：岡山都市圏）現已和附近其他都市圈共同發展為東瀨戶經濟圈（日语：東瀬戸経済圏）。
广岛县,東廣島市,﻿34.42,132.73,東廣島市（日语：東広島市／ひがしひろしまし Higashihiroshima shi ）是位於廣島縣中南部的城市，為近年廣島縣內人口成長較快的城市；由於位於廣島市的東側，因此以「東廣島」命名。
山口县,下关市,﻿33.95,130.93,下關市（日语：下関市／しものせきし Shimonoseki shi ）是位於日本山口縣的城市，為本州最西端的都市，是中日关系史中著名的馬關條約簽署地點。轄區西側為日本海，東南側為瀨戶內海周防灘（日语：周防灘），南側以關門海峽與九州相隔；主要市區位於關門海峽北岸的下关港周邊，與海峽對岸的北九州市之間有關門鐵路隧道、關門國道隧道、關門橋可以往來，兩地也因此共同形成關門都市圈（日语：関門都市圏）。
山口县,防府市,﻿34.05,131.57,防府市（日语：防府市／ほうふし Hōfu shi ）是日本山口縣中南部的市，位於中国地方西部。轄區主要位於佐波川河口周邊的平原上。
德岛县,德島市,﻿34.07,134.55,德島市（日语：徳島市／とくしまし Tokushima shi ）是日本四國地方德島縣東北部的一個城市，位於吉野川河口，臨紀淡海峽，為德島縣的縣廳所在地。德島市在江戶時代是德島藩的城下町，在幕末時期因蓼藍產業的發展而是日本人口第10多的城市。德島市是德島縣的政治、經濟和文化中心，雖然屬于四國地方，但自古以來一直與近畿地方往來密切。現在德島市亦可通過神戶淡路鳴門自動車道直接往來關西，並可接收到關西的電視和廣播訊號，人員經濟往來頻繁。每年8月12日至15日舉辦的「德島市阿波舞」祭典為日本著名的傳統盆舞慶典，四天的時間約可吸引一百三十萬的觀光客[2]。
香川县,高松市,﻿34.35,134.05,高松市（日语：高松市／たかまつし Takamatsu shi ）是位於日本四國地方東北部香川縣中部的城市，也是香川縣縣廳所在地，目前是中核市。高松市位於讚岐平原，臨瀨戶內海，是一座港口城市。
爱媛县,松山市,﻿33.83,132.77,松山市（日语：松山市／まつやまし Matsuyama shi ）是日本四國愛媛縣最大的城市，也是愛媛縣的縣廳所在地。松山市是四國地方人口最多的城市，屬於中核市。松山市是以松山城為中心發展而成的城下町，因道後溫泉而自古就是著名的溫泉療養地，擁有眾多古蹟。並且俳句家正岡子規、種田山頭火及文豪夏目漱石都曾在松山生活過，加上松山是小說《少爺》、《坂上之雲（日语：坂の上の雲）》的舞台，使得松山也是一座頗為著名的文學之城。松山憑藉眾多的觀光資源被指定為「國際觀光溫泉文化都市」，城市的宣傳標語就是「溫泉和文學之城」。松山市奉行緊湊城市理論，商圈和大多數文化設施的位置都較為集中，使得松山市市中心地區是一座職住接近的宜居城市，也便於觀光客使用公共交通觀光[3]。以松山為中心的松山都市圈（日语：松山都市圏）集中了愛媛縣超過四成的人口[4]。松山市也是野球拳運動的故鄉[5]。
爱媛县,新居濱市,﻿33.97,133.28,新居濱市（日语：新居浜市／にいはまし Niihama shi ）是位於四国中北部，愛媛縣東予地方的城市。現在以機械制造，金屬加工和化學工業而聞名，為住友集團的企業城下町，也是瀨戶內地方的主要工業都市。
高知县,高知市,﻿33.57,133.53,高知市（日语：高知市／こうちし Kōchi shi ）是位於日本四國地方中南部的城市，為高知縣縣府的所在地，也是四國島太平洋沿岸的中心城市，是中核市。高知市的歷史開始於長宗我部元親的大高坂山城。自山內一豐入府之後，高知市作為土佐藩的城下町得到發展。高知市不僅是高知縣的經濟和政治中心，還集中了高知縣近半數的人口，在昭和大合併之前是高知縣唯一的市，規模遠大於縣內其他城市。高知市也是日本人均酒類消費量較多的城市。高知市現在仍有「曜市」（固定在每週特定的一日開市的集市），其中又以週日的日曜市規模最大。「高知」這一地名源自高知城。土佐藩第一代藩主山內一豐在修築高知城時，因城址位於被河川包夾中的山上而給城起名為「河中山城」（こうちやまじょう）。後因河中山城遭遇水患，第二代藩主山內忠義（日语：山內忠義）為求吉利，在不改變發音下，將河中山城的漢字名稱改為「高智山城」，之後再簡稱為「高知城」:21。
高知县,室戶市,﻿33.29,134.1519,室戶市（日语：室戸市／むろとし Muroto shi ）為位於高知縣東南部的城市，轄區內八成地區為山林地，以水產、賞鯨和海洋深層水聞名。夏秋季常有台風在此登陸。由於近年水產業的衰退，人口逐漸減少，目前為高知縣内11市中人口數第二少的市，僅高于土佐清水市。
福冈县,久留米市,﻿33.32,130.52,久留米市（日语：久留米市／くるめし Kurume shi ）是日本福岡縣南部（筑後地方）的主要城市。為1889年4月1日日本實施市制時，全日本第一批成立的城市之一。
福冈县,北九州市,﻿33.88,130.88,北九州市（日语：北九州市／きたきゅうしゅうし Kitakyūshū shi ）是日本福岡縣北部的一個政令指定都市，位於九州島最北端，隔關門海峽與本州相望。北九州是北九州工業地帶的中心都市，在1963年由門司市、小倉市、戶畑市、八幡市、若松市合併誕生，是日本三大都市圈之外的首個政令指定都市，也是首個非都道府縣廳所在地的政令指定都市，現在北九州市仍是西日本非都道府縣廳所在地城市中人口最多的城市。
福冈县,古賀市,﻿33.73,130.47,古賀市（日语：古賀市／こがし Koga shi ）是位于福岡縣西北部的一個城市，日語讀音與茨城縣的古河市同樣都為「Koga-shi」。
